,timestamp(unix),attitude_roll(radians),attitude_pitch(radians),attitude_yaw(radians),rotation_rate_x(radians/s),rotation_rate_y(radians/s),rotation_rate_z(radians/s),gravity_x(G),gravity_y(G),gravity_z(G),user_acc_x(G),user_acc_y(G),user_acc_z(G),magnetic_field_x(microteslas),magnetic_field_y(microteslas),magnetic_field_z(microteslas),latitude(degree),longitude(degree),altitude(meter),speed(m/s),course(degree),timestamp(unix).1,User Mark,timestamp
0,1528282412.731368,0.255031,0.191111,2.946614,-0.074312,-0.682843,0.186113,0.247683,-0.18995,-0.9500379999999999,0.020521,0.058327,-0.026188999999999997,-4.7382349999999995,-12.383113999999999,-25.711426,,,,,,,,1528282412.731368
1,,,,,,,,,,,,,,,,,52.334121,4.865614,-0.8988450000000001,-1.0,-1.0,1528282340.253144,,1528282340.253144
2,1528282412.751525,0.24558200000000002,0.195259,2.950023,0.311704,-0.322211,0.21641100000000002,0.23850100000000002,-0.19402,-0.951564,-0.020819,0.042043000000000004,0.013316,-5.186676,-12.378185,-25.601471,,,,,,,,1528282412.751525
3,,,,,,,,,,,,,,,,,52.335636,4.8663419999999995,-0.8988450000000001,-1.0,-1.0,1528282412.745413,,1528282412.745413
4,1528282412.771683,0.24413600000000002,0.204297,2.9502509999999997,0.512994,-0.008,0.072463,0.23669099999999998,-0.202878,-0.950167,-0.013988999999999998,0.007047,0.00635,-5.36499,-12.138271000000001,-25.715942000000002,,,,,,,,1528282412.771683
5,,,,,,,,,,,,,,,,,52.336321000000005,4.866671,-0.8988450000000001,-1.0,-1.0,1528282412.749648,,1528282412.749648
6,1528282412.79184,0.244939,0.21493,2.947959,0.600168,-0.007298000000000001,0.028789,0.236918,-0.213279,-0.94783,0.035375,0.016334,0.049423,-5.633499,-12.163967,-25.462494,,,,,,,,1528282412.79184
7,1528282412.8119972,0.245652,0.225634,2.945953,0.568094,0.0041719999999999995,0.067182,0.23702399999999998,-0.223725,-0.945392,0.070989,0.01622,0.09231900000000001,-5.5289459999999995,-12.569771000000001,-25.33493,,,,,,,,1528282412.8119972
8,1528282412.8321538,0.245241,0.23520100000000002,2.946028,0.46512200000000004,-0.03361,0.181305,0.23610599999999998,-0.233039,-0.94337,0.09797,0.018424,0.098842,-5.517365,-12.853031,-24.996124,,,,,,,,1528282412.8321538
9,1528282412.852311,0.24259299999999998,0.24338400000000002,2.949455,0.32545999999999997,-0.12225699999999999,0.302863,0.23314000000000001,-0.240988,-0.942109,0.086516,0.012152,0.088502,-5.633591,-13.105392,-24.771545,,,,,,,,1528282412.852311
10,1528282412.872469,0.238617,0.249111,2.95439,0.183453,-0.140206,0.289878,0.22906300000000002,-0.246542,-0.941672,0.099199,-0.001505,0.048576,-5.87027,-12.935543,-24.778107000000002,,,,,,,,1528282412.872469
11,1528282412.892626,0.23655,0.252164,2.95854,0.070361,-0.047774000000000004,0.206432,0.226938,-0.2495,-0.941408,0.066122,-0.002254,0.034089999999999995,-5.908478,-13.24295,-24.556763,,,,,,,,1528282412.892626
12,1528282412.912783,0.236238,0.25360900000000003,2.960934,0.046064,-0.024765000000000002,0.10603699999999999,0.22655999999999998,-0.250899,-0.941127,0.068453,-0.001039,0.031093,-6.239685,-13.275332999999998,-24.480835,,,,,,,,1528282412.912783
13,1528282412.93294,0.23526,0.25608600000000004,2.962212,0.158422,-0.125433,0.11474100000000001,0.22549499999999997,-0.253296,-0.9407409999999999,0.09765599999999999,0.021378,0.026312000000000002,-6.287537,-13.280551999999998,-24.40683,,,,,,,,1528282412.93294
14,1528282412.953097,0.2311,0.262234,2.964705,0.32579600000000003,-0.250128,0.245232,0.22121799999999997,-0.259239,-0.9401370000000001,0.087375,0.017936,0.0164,-6.508026,-13.369789,-24.345367,,,,,,,,1528282412.953097
15,1528282412.973254,0.22567199999999998,0.27061599999999997,2.968352,0.370302,-0.25108,0.268779,0.21561799999999998,-0.267325,-0.9391729999999999,0.029636000000000003,-0.003229,0.00020800000000000001,-6.63652,-13.559643,-24.003906,,,,,,,,1528282412.973254
16,1528282412.993412,0.22181199999999998,0.278095,2.970428,0.32853000000000004,-0.166643,0.142724,0.21154499999999998,-0.274524,-0.9380219999999999,0.022982,-0.008297,-0.052990999999999996,-6.890610000000001,-13.61171,-24.024719,,,,,,,,1528282412.993412
17,1528282413.0135689,0.222733,0.283957,2.9706580000000002,0.288198,0.076791,0.094565,0.21205,-0.280156,-0.936241,0.048219,-0.001811,-0.046822,-7.004592999999999,-13.813591,-23.903107000000002,,,,,,,,1528282413.0135689
18,1528282413.033726,0.22561900000000001,0.289867,2.972343,0.305576,0.10425999999999999,0.21630100000000002,0.214377,-0.285825,-0.933995,0.051599,-0.00223,-0.067058,-6.901306,-13.874264000000002,-23.729614,,,,,,,,1528282413.033726
19,1528282413.053883,0.22673600000000002,0.297806,2.9761,0.382981,0.089267,0.28152699999999997,0.214903,-0.29342399999999996,-0.931514,0.043077,-0.029758,-0.035572,-7.114578,-13.821948999999998,-23.575775,,,,,,,,1528282413.053883
20,1528282413.0740411,0.225187,0.306748,2.978478,0.433646,-0.17363499999999998,0.149263,0.21286599999999997,-0.30196,-0.929251,0.049998,-0.042309,-0.06034199999999999,-7.393936,-14.066021,-23.382263000000002,,,,,,,,1528282413.0740411
21,1528282413.094198,0.217369,0.315232,2.976443,0.438884,-0.5342439999999999,-0.089803,0.205035,-0.310037,-0.9283520000000001,0.058195000000000004,-0.024023,-0.099236,-7.4423070000000004,-14.328693,-23.218567,,,,,,,,1528282413.094198
22,1528282413.114355,0.20785599999999999,0.322756,2.971104,0.41141700000000003,-0.521077,-0.16564700000000002,0.195707,-0.317182,-0.927952,0.08871699999999999,-0.019563999999999998,-0.1414,-7.600494,-14.431961,-23.02478,,,,,,,,1528282413.114355
23,1528282413.134512,0.200826,0.32969299999999996,2.968254,0.328435,-0.336142,0.0125,0.18873499999999999,-0.323752,-0.927126,0.040527999999999995,-0.013466999999999998,-0.127164,-7.431732000000001,-14.678425,-23.008910999999998,,,,,,,,1528282413.134512
24,1528282413.154669,0.195574,0.334811,2.969409,0.17693599999999998,-0.18470899999999998,0.141467,0.183539,-0.32859099999999997,-0.926467,0.030619,0.008034,-0.085465,-7.846252000000001,-14.598747,-22.777527,,,,,,,,1528282413.154669
25,1528282413.1748269,0.19056199999999998,0.337441,2.9732,0.070759,-0.214902,0.241698,0.178729,-0.331073,-0.926524,0.039304,-0.0019190000000000001,-0.090932,-8.293686,-14.672210999999999,-22.512451000000002,,,,,,,,1528282413.1748269
26,,,,,,,,,,,,,,,,,52.334802,4.867099,-2.127046,-1.0,-1.0,1528282413.107506,,1528282413.107506
27,1528282413.194984,0.184876,0.340526,2.9793830000000003,0.116325,-0.126809,0.333557,0.173269,-0.333983,-0.926517,0.000101,0.016447,-0.0108,-8.528091,-14.635932999999998,-22.424957,,,,,,,,1528282413.194984
28,1528282413.215141,0.182246,0.344386,2.984593,0.145253,-0.001088,0.21398699999999998,0.170597,-0.337618,-0.925694,-0.057469000000000006,0.05295,0.035802,-8.349213,-14.808353,-22.499939,,,,,,,,1528282413.215141
29,1528282413.2352982,0.183105,0.345977,2.985674,0.003204,0.065063,-0.024304,0.171294,-0.339116,-0.925018,-0.048750999999999996,0.071004,0.06777899999999999,-8.427017,-14.730549,-22.342285,,,,,,,,1528282413.2352982
30,1528282413.255455,0.18333,0.342478,2.984872,-0.23624299999999998,-0.083688,-0.048056,0.171717,-0.33582199999999995,-0.926141,0.050969,0.0013189999999999999,0.014901,-8.691376,-14.565829999999998,-22.329407,,,,,,,,1528282413.255455
31,1528282413.275613,0.180241,0.336898,2.986602,-0.288736,-0.074924,0.074659,0.169189,-0.330561,-0.9284959999999999,-0.00412,0.050089999999999996,0.029539,-8.586899,-14.401089,-22.697479,,,,,,,,1528282413.275613
32,1528282413.29577,0.181456,0.33179000000000003,2.989945,-0.237666,0.244058,0.093862,0.17062,-0.325736,-0.9299379999999999,-0.095699,0.093466,0.034339,-8.539291,-14.206985000000001,-22.703003,,,,,,,,1528282413.29577
33,1528282413.315927,0.188025,0.327766,2.9921279999999997,-0.180431,0.487937,0.065052,0.17696800000000001,-0.321929,-0.930077,-0.096204,0.03279,0.060036,-8.556732,-13.847607,-22.646759,,,,,,,,1528282413.315927
34,1528282413.336084,0.199733,0.32410500000000003,2.994094,-0.24465599999999998,0.670858,0.030764999999999997,0.188078,-0.31845999999999997,-0.929091,-0.125944,0.121546,0.081709,-8.434082,-13.893818,-22.961853,,,,,,,,1528282413.336084
35,1528282413.356241,0.21683899999999998,0.31547800000000004,2.9958299999999998,-0.576779,1.0160360000000002,-0.009239,0.20452599999999999,-0.310271,-0.928386,-0.135572,0.141539,0.164623,-7.836150999999999,-13.790222,-23.07074,,,,,,,,1528282413.356241
36,1528282413.376399,0.23971199999999998,0.29987600000000003,3.001416,-0.927831,1.267364,0.165357,0.226827,-0.295401,-0.928056,-0.08734700000000001,0.066092,0.145066,-7.456635,-13.508323999999998,-23.293457,,,,,,,,1528282413.376399
37,1528282413.3965561,0.257496,0.28217600000000004,3.014236,-1.03729,0.816832,0.526201,0.244588,-0.278447,-0.9287860000000001,-0.060490999999999996,0.0068709999999999995,0.073989,-6.936278999999999,-12.692116,-23.887451000000002,,,,,,,,1528282413.3965561
38,1528282413.416713,0.25760500000000003,0.264073,3.034697,-1.158215,0.043682,0.779265,0.245934,-0.261015,-0.9334809999999999,0.031348,-0.00035299999999999996,0.053675,-6.612274,-12.119175,-24.477844,,,,,,,,1528282413.416713
39,1528282413.4368699,0.243646,0.245446,3.057241,-1.154372,-0.725627,0.8413729999999999,0.234012,-0.24298899999999998,-0.9413790000000001,-0.040805,-0.021278000000000002,0.04285,-7.039016999999999,-11.379524,-24.517882999999998,,,,,,,,1528282413.4368699
40,1528282413.457028,0.219625,0.227544,3.0796080000000003,-1.077061,-0.931955,0.835117,0.212248,-0.22558499999999998,-0.950822,0.024203,-0.068772,0.094346,-7.510161999999999,-10.79015,-24.742615,,,,,,,,1528282413.457028
41,1528282413.477185,0.20520300000000002,0.210421,3.098617,-1.012523,-0.15498,0.614006,0.199272,-0.20887199999999997,-0.957425,-0.024314,-0.076971,0.21093499999999998,-8.090866,-10.019497,-24.92514,,,,,,,,1528282413.477185
42,1528282413.497342,0.211846,0.191244,3.110591,-1.0608360000000001,0.710453,0.246462,0.206431,-0.19008,-0.9598209999999999,-0.077388,-0.025053,0.172498,-8.392334,-9.400387,-25.022736,,,,,,,,1528282413.497342
43,1528282413.517499,0.224446,0.17257,3.118601,-0.9290440000000001,0.596217,0.193272,0.21925999999999998,-0.171715,-0.9604370000000001,-0.054190999999999996,-0.023873,0.033206,-8.116760000000001,-8.913269,-25.081085,,,,,,,,1528282413.517499
44,1528282413.537656,0.22655100000000003,0.159775,3.130242,-0.6119100000000001,-0.084771,0.5867319999999999,0.221757,-0.15909600000000002,-0.9620360000000001,0.008056,-0.062538,-0.061082000000000004,-7.544510000000001,-7.9776419999999995,-25.473541,,,,,,,,1528282413.537656
45,1528282413.5578141,0.21548699999999998,0.155924,-3.134114,-0.26868800000000004,-0.49313500000000005,0.982295,0.211229,-0.15529300000000001,-0.9650209999999999,-0.016694999999999998,-0.053875,0.015588999999999999,-8.189163,-7.534569,-25.562256,,,,,,,,1528282413.5578141
46,1528282413.577971,0.207418,0.157365,-3.1126720000000003,-0.11040599999999999,0.032997000000000005,1.047502,0.20338900000000001,-0.156717,-0.9664739999999999,-0.058797,0.004236,0.157499,-8.269516000000001,-7.2415009999999995,-25.594635,,,,,,,,1528282413.577971
47,1528282413.5981278,0.21644699999999997,0.159631,-3.092046,-0.101904,0.955274,0.991772,0.212031,-0.15895399999999998,-0.964249,-0.049738,0.025089,0.159958,-8.313125999999999,-6.944828,-25.515625,,,,,,,,1528282413.5981278
48,1528282413.618285,0.24220500000000003,0.162147,-3.0715529999999998,-0.10364100000000001,1.685209,1.0471190000000001,0.236698,-0.161437,-0.9580770000000001,-0.02251,-0.022262999999999998,0.10231900000000001,-8.244247,-6.504936,-25.657684,,,,,,,,1528282413.618285
49,1528282413.638442,0.275407,0.167246,-3.046908,-0.026779,1.8681880000000002,1.356792,0.26814499999999997,-0.166467,-0.948887,-0.024218,-0.06313200000000001,0.033832999999999995,-7.543869,-6.6331940000000005,-25.973328,,,,,,,,1528282413.638442
50,1528282413.6586,0.302681,0.17741099999999999,-3.01753,0.145071,1.3422969999999999,1.595218,0.293402,-0.176482,-0.939558,0.018701,-0.046814999999999996,-0.075304,-6.663406,-6.421425,-25.951385000000002,,,,,,,,1528282413.6586
51,1528282413.678757,0.312625,0.192747,-2.9861459999999997,0.309186,0.442248,1.7024099999999998,0.30186199999999996,-0.191556,-0.933909,0.123019,-0.057727,-0.09136,-6.169112999999999,-6.14465,-26.270477000000003,,,,,,,,1528282413.678757
52,1528282413.698914,0.309244,0.206418,-2.959755,0.184585,-0.004808,1.1738629999999999,0.29787800000000003,-0.204956,-0.932342,0.073216,-0.10286,-0.016846,-6.228867,-6.14011,-26.255096,,,,,,,,1528282413.698914
53,1528282413.7190711,0.30741999999999997,0.210664,-2.9462639999999998,-0.125528,0.046829,0.444245,0.29591,-0.20911,-0.9320459999999999,-0.044842,-0.100781,0.003625,-6.24028,-6.014809,-26.205109,,,,,,,,1528282413.7190711
54,1528282413.739229,0.30591,0.206331,-2.93834,-0.414524,0.021256,0.291209,0.294773,-0.20486999999999997,-0.9333469999999999,-0.044254,0.0006309999999999999,-0.059740999999999995,-6.216826999999999,-5.9412080000000005,-26.373352,,,,,,,,1528282413.739229
55,1528282413.7593858,0.305672,0.199506,-2.9274419999999997,-0.504749,0.181327,0.481109,0.29496500000000003,-0.198185,-0.934729,0.040438,-0.03825,-0.153391,-6.22757,-5.57616,-26.420379999999998,,,,,,,,1528282413.7593858
56,1528282413.779543,0.308587,0.193753,-2.9127919999999996,-0.453391,0.303508,0.6509050000000001,0.29803,-0.19254300000000002,-0.9349360000000001,0.031087,-0.02195,-0.259232,-6.301727,-5.1728819999999995,-26.457458000000003,,,,,,,,1528282413.779543
57,1528282413.7997,0.309686,0.19331099999999998,-2.897313,-0.08576900000000001,0.11548900000000001,0.744292,0.299083,-0.192109,-0.934689,-0.009319,0.034562,-0.31673,-6.15329,-4.9100150000000005,-26.543365,,,,,,,,1528282413.7997
58,1528282413.8198571,0.304766,0.20282,-2.883448,0.434583,-0.273943,0.7962899999999999,0.29391999999999996,-0.201433,-0.934364,-0.018071,0.054674,-0.301537,-6.343689,-4.598587,-26.537322999999997,,,,,,,,1528282413.8198571
59,1528282413.840015,0.291502,0.220808,-2.87289,0.829951,-0.63744,0.6986479999999999,0.280413,-0.219018,-0.934558,0.017087,0.006372,-0.245617,-6.829910000000001,-4.918129,-26.294280999999998,,,,,,,,1528282413.840015
60,1528282413.860172,0.274179,0.240102,-2.8655169999999996,0.699042,-0.893862,0.575757,0.26299,-0.23780199999999999,-0.935033,-0.046452,0.015465999999999999,-0.152842,-7.174774,-4.919846,-26.151336999999998,,,,,,,,1528282413.860172
61,1528282413.880329,0.254932,0.24959,-2.857335,0.167704,-0.7776649999999999,0.44907600000000003,0.24436599999999997,-0.247007,-0.9376959999999999,-0.049282,0.03726,-0.050783999999999996,-8.019561999999999,-5.055717,-26.055939000000002,,,,,,,,1528282413.880329
62,1528282413.900486,0.240015,0.251729,-2.850291,-0.014565,-0.649831,0.320701,0.230225,-0.249079,-0.9407209999999999,-0.031388,0.111948,-0.140211,-8.600052,-5.000191,-25.777282999999997,,,,,,,,1528282413.900486
63,1528282413.920644,0.22371300000000002,0.256524,-2.8429159999999998,0.307077,-0.7036939999999999,0.45670900000000003,0.214592,-0.25372,-0.943174,-0.038155,0.114926,-0.15274300000000002,-8.542557,-5.126530000000001,-25.582428,,,,,,,,1528282413.920644
64,1528282413.940801,0.20942800000000003,0.269004,-2.8346,0.586817,-0.5777399999999999,0.557388,0.200424,-0.265771,-0.9429719999999999,-0.021698,0.144327,-0.047369,-9.140625,-5.001904,-25.352692,,,,,,,,1528282413.940801
65,1528282413.960958,0.193101,0.282559,-2.8227189999999998,0.4892,-0.6460100000000001,0.7419979999999999,0.184293,-0.278814,-0.9424959999999999,-0.012388,0.117422,0.080695,-9.957886,-5.024796,-25.423157,,,,,,,,1528282413.960958
66,1528282413.981115,0.17802300000000001,0.289964,-2.810294,0.083379,-0.5395979999999999,0.558887,0.169692,-0.285918,-0.943109,0.061814999999999995,0.058883000000000005,0.149881,-10.240875,-5.305534,-25.23938,,,,,,,,1528282413.981115
67,1528282414.001272,0.164114,0.289775,-2.800502,-0.127907,-0.5982430000000001,0.428383,0.156567,-0.28573699999999996,-0.9454319999999999,0.050144,0.031068000000000002,0.101667,-10.41217,-4.721622,-25.233856,,,,,,,,1528282414.001272
68,1528282414.02143,0.142336,0.289612,-2.792036,-0.018799,-1.232782,0.368879,0.13594900000000001,-0.28558,-0.9486629999999999,0.018302000000000002,0.08190599999999999,-0.055304,-11.203339,-4.645256,-25.191071,,,,,,,,1528282414.02143
69,1528282414.0415869,0.108384,0.292002,-2.78609,0.144794,-1.766471,0.23575100000000002,0.103593,-0.28786999999999996,-0.95205,-0.006196,0.109083,0.001183,-11.822998,-4.7928809999999995,-24.432312,,,,,,,,1528282414.0415869
70,1528282414.061744,0.07098099999999999,0.298093,-2.78401,0.38439,-1.7922799999999999,0.06843099999999999,0.06779400000000001,-0.293698,-0.953491,0.04448,0.087826,0.038529,-12.508255,-4.624111,-23.878784,,,,,,,,1528282414.061744
71,1528282414.081901,0.04192,0.306293,-2.78402,0.292607,-0.928724,0.014728,0.039957,-0.301527,-0.95262,0.069906,0.06763999999999999,0.15547,-13.405396,-5.0206029999999995,-23.692535,,,,,,,,1528282414.081901
72,1528282414.102058,0.045627999999999995,0.308208,-2.781157,-0.001668,0.826149,0.24990199999999999,0.043463,-0.303352,-0.951887,0.002466,0.041816000000000006,0.20326,-13.470092999999999,-4.857136,-23.546782999999998,,,,,,,,1528282414.102058
73,1528282414.122216,0.067828,0.30298600000000003,-2.775246,-0.431208,1.365623,0.231086,0.064688,-0.298371,-0.952255,-0.023612,0.07823300000000001,0.16641199999999998,-13.061264,-4.94379,-23.896179,,,,,,,,1528282414.122216
74,1528282414.142373,0.093125,0.29336,-2.768379,-0.491565,1.203224,0.329276,0.089018,-0.28917,-0.9531299999999999,0.004427,-0.026626,0.087896,-12.341125,-4.418667,-24.647614,,,,,,,,1528282414.142373
75,1528282414.1625302,0.10129400000000001,0.288197,-2.761134,-0.105077,0.062713,0.31187800000000004,0.09695,-0.284224,-0.953844,0.030811,0.042509,-0.025405,-12.276077,-4.344875,-24.601746,,,,,,,,1528282414.1625302
76,1528282414.1826868,0.08723600000000001,0.29491799999999996,-2.753246,0.5188,-0.873793,0.46129,0.083364,-0.290662,-0.9531870000000001,0.101146,-0.001987,0.026338,-12.126128999999999,-4.179409,-24.443207,,,,,,,,1528282414.1826868
77,1528282414.202844,0.058561,0.308741,-2.742141,0.651713,-1.397174,0.5907680000000001,0.055760000000000004,-0.30385999999999996,-0.951084,0.10868399999999999,0.10680799999999999,0.12079200000000001,-12.712357,-4.469189,-24.182831,,,,,,,,1528282414.202844
78,1528282414.223002,0.034839999999999996,0.3206,-2.734058,0.498388,-0.780275,0.269065,0.033058,-0.315136,-0.94847,0.03991,-0.060367,0.162841,-13.504684,-4.705421,-23.602905,,,,,,,,1528282414.223002
79,1528282414.243159,0.026261000000000003,0.32762199999999997,-2.732164,0.264726,-0.233291,0.049767,0.024861,-0.321792,-0.946484,-0.009816,-0.018357,0.13460899999999998,-13.810303,-4.635986,-23.736237,,,,,,,,1528282414.243159
80,1528282414.263316,0.018885,0.33255300000000004,-2.73045,0.269208,-0.5104569999999999,0.124573,0.017849,-0.32645799999999997,-0.9450430000000001,0.066242,-0.020787,0.031072000000000002,-14.05899,-4.807446,-23.55777,,,,,,,,1528282414.263316
81,1528282414.283473,-0.003924,0.34127199999999996,-2.7219450000000003,0.54791,-1.181086,0.556419,-0.0036969999999999998,-0.33468600000000004,-0.9423219999999999,0.13228299999999998,-0.023712,-0.052032,-14.348206,-4.796501,-23.198547,,,,,,,,1528282414.283473
82,1528282414.30363,-0.029337000000000002,0.356396,-2.709906,0.8289489999999999,-1.156887,0.55143,-0.027489999999999997,-0.34889899999999996,-0.936757,0.075738,0.056861,-0.084819,-15.028336,-4.89653,-23.061737,,,,,,,,1528282414.30363
83,1528282414.3237882,-0.05807999999999999,0.373274,-2.6957009999999997,0.8188300000000001,-1.233765,0.619771,-0.05405,-0.364666,-0.9295680000000001,0.001011,-0.019962,-0.05586,-15.630081,-5.269115,-22.598663000000002,,,,,,,,1528282414.3237882
84,1528282414.343945,-0.086903,0.384601,-2.687465,0.443989,-1.253544,0.090806,-0.080453,-0.375189,-0.92345,-0.185416,0.057196000000000004,0.057010000000000005,-16.269683999999998,-5.258316000000001,-22.011047,,,,,,,,1528282414.343945
85,1528282414.364102,-0.106226,0.389631,-2.691063,0.102122,-0.882969,-0.28553,-0.09808,-0.379847,-0.9198350000000001,-0.07141499999999999,-0.100347,0.033253,-16.906647,-5.685566000000001,-21.519226,,,,,,,,1528282414.364102
86,1528282414.384259,-0.11767799999999999,0.389347,-2.697948,-0.109418,-0.618066,-0.294403,-0.10861900000000001,-0.37958400000000003,-0.918759,0.01522,-0.15784600000000001,-0.026813,-17.210663,-5.538212000000001,-21.19281,,,,,,,,1528282414.384259
87,1528282414.404417,-0.130219,0.38828,-2.697726,0.077426,-0.571145,0.200154,-0.12018499999999999,-0.37859699999999996,-0.917725,0.158393,-0.144154,-0.12133699999999999,-17.335175,-5.403519,-21.002654999999997,,,,,,,,1528282414.404417
88,1528282414.4245741,-0.143482,0.393901,-2.691797,0.401321,-0.5854239999999999,0.183481,-0.13204000000000002,-0.383794,-0.9139299999999999,0.031897,-0.088237,-0.1468,-17.850815,-5.5685199999999995,-20.797516,,,,,,,,1528282414.4245741
89,1528282414.444731,-0.156278,0.401687,-2.687295,0.374919,-0.47663599999999995,0.154598,-0.143254,-0.390972,-0.909186,-0.004039,-0.130421,-0.064065,-18.236053,-5.3943900000000005,-20.502136,,,,,,,,1528282414.444731
90,1528282414.464888,-0.164662,0.40466799999999997,-2.685263,0.036607,-0.33224899999999996,-0.010286,-0.15068,-0.39371300000000004,-0.906799,-0.054734000000000005,-0.075448,-0.04866,-18.309998,-5.772369,-20.223511,,,,,,,,1528282414.464888
91,1528282414.485045,-0.169922,0.403764,-2.6878990000000003,-0.10290999999999999,-0.335381,-0.177016,-0.155507,-0.392882,-0.9063450000000001,-0.004435000000000001,-0.044038,-0.117657,-18.513199,-5.408676,-19.971863,,,,,,,,1528282414.485045
92,1528282414.505203,-0.176481,0.402575,-2.6936240000000002,-0.09693600000000001,-0.493282,-0.251707,-0.161531,-0.391789,-0.9057639999999999,0.056352,0.008579999999999999,-0.160108,-18.805054000000002,-5.495003,-19.950714,,,,,,,,1528282414.505203
93,1528282414.5253599,-0.18501700000000001,0.40155599999999997,-2.697171,-0.051299000000000004,-0.446626,-0.062683,-0.16933,-0.390851,-0.904745,0.12141700000000001,0.032666,-0.15673299999999998,-19.08847,-5.648582,-19.972992,,,,,,,,1528282414.5253599
94,1528282414.545517,-0.19105899999999998,0.402027,-2.694284,0.11871199999999998,-0.117631,0.227856,-0.174758,-0.391285,-0.903524,0.12620499999999998,0.065205,-0.149546,-19.212845,-5.63237,-19.646667,,,,,,,,1528282414.545517
95,1528282414.565674,-0.193465,0.406262,-2.686152,0.367672,0.113595,0.349829,-0.176611,-0.39517800000000003,-0.901467,0.074408,0.06644299999999999,-0.12085699999999999,-19.355957,-5.532269,-20.046631,,,,,,,,1528282414.565674
96,1528282414.5858312,-0.195904,0.41395,-2.677603,0.484184,-0.057632,0.26354,-0.17821199999999998,-0.402229,-0.898027,0.057485,0.05177999999999999,-0.08792,-19.371489999999998,-5.610462,-19.660828,,,,,,,,1528282414.5858312
97,1528282414.605989,-0.203823,0.42325,-2.672244,0.49229399999999995,-0.399052,0.065042,-0.184554,-0.41072600000000004,-0.892885,0.009627,0.030599,-0.059675,-19.234741,-5.582428,-19.711975,,,,,,,,1528282414.605989
98,1528282414.626146,-0.21335900000000002,0.43216099999999996,-2.6703509999999997,0.41978699999999997,-0.443121,-0.028994,-0.192277,-0.41883400000000004,-0.8874719999999999,0.015855,0.042599,-0.067438,-19.393448,-5.740414,-19.559692000000002,,,,,,,,1528282414.626146
99,1528282414.646303,-0.222295,0.440025,-2.668161,0.38805300000000004,-0.365014,0.037148,-0.199467,-0.425962,-0.8824790000000001,0.030568,0.028332999999999997,-0.076628,-19.731369,-6.190903,-19.292023,,,,,,,,1528282414.646303
100,1528282414.66646,-0.228782,0.44608000000000003,-2.666368,0.24279,-0.24267800000000003,-0.031396,-0.204599,-0.431432,-0.8786379999999999,-0.031409,0.030935,-0.024102000000000002,-19.637482000000002,-6.302612,-19.196686,,,,,,,,1528282414.66646
101,1528282414.686617,-0.23113499999999998,0.448603,-2.6690549999999997,0.05770599999999999,-0.136152,-0.208892,-0.20641500000000002,-0.43370699999999995,-0.877092,-0.065954,0.036352999999999996,-0.024367,-19.700272000000002,-6.336998,-18.983978,,,,,,,,1528282414.686617
102,1528282414.706775,-0.228954,0.450086,-2.675235,0.033313,0.011829000000000001,-0.315718,-0.20435599999999998,-0.435043,-0.8769129999999999,-0.075704,0.058319,-0.02804,-19.914078,-6.609858999999999,-19.060485999999997,,,,,,,,1528282414.706775
103,1528282414.726932,-0.224523,0.45311999999999997,-2.681508,0.181045,0.09109500000000001,-0.282454,-0.200173,-0.43777299999999997,-0.876519,-0.038749,0.046095,-0.031074,-19.884491,-6.779594,-19.086548,,,,,,,,1528282414.726932
104,1528282414.7470891,-0.22167699999999999,0.46016599999999996,-2.685449,0.408765,0.015704,-0.24798499999999998,-0.196995,-0.444097,-0.8740540000000001,-0.055049,0.0557,-0.009567,-19.950058,-6.919891000000001,-19.260468,,,,,,,,1528282414.7470891
105,1528282414.767246,-0.22270900000000002,0.47118000000000004,-2.688924,0.5504600000000001,-0.242723,-0.317151,-0.196805,-0.453938,-0.869027,-0.085117,0.067723,0.015008,-20.104126,-7.4507710000000005,-19.158417,,,,,,,,1528282414.767246
106,1528282414.7874029,-0.230611,0.481521,-2.693836,0.5030100000000001,-0.486158,-0.361991,-0.20258099999999998,-0.463128,-0.862828,-0.069605,0.031838,0.131658,-20.037277,-7.695251,-18.813965,,,,,,,,1528282414.7874029
107,1528282414.807561,-0.23426799999999998,0.493088,-2.700444,0.549771,-0.225712,-0.480501,-0.204479,-0.47334799999999994,-0.856814,-0.044514,-0.062876,0.16589600000000002,-20.332428,-8.097339999999999,-18.620972000000002,,,,,,,,1528282414.807561
108,1528282414.827718,-0.233371,0.504115,-2.710223,0.404229,-0.174279,-0.584262,-0.202491,-0.48303199999999996,-0.851867,-0.10119,0.049469,0.124831,-20.373932,-8.372622999999999,-18.498413,,,,,,,,1528282414.827718
109,1528282414.847875,-0.22870900000000002,0.512594,-2.7202319999999998,0.313704,0.15961199999999998,-0.475551,-0.197581,-0.49044,-0.8487819999999999,-0.07343,0.08196200000000001,0.130047,-20.145172,-8.717979,-18.258698000000003,,,,,,,,1528282414.847875
110,1528282414.868032,-0.217619,0.520432,-2.726744,0.339725,0.503671,-0.33466999999999997,-0.18732000000000001,-0.497255,-0.847141,-0.117901,0.106172,0.098393,-19.874069,-9.060574,-18.599731,,,,,,,,1528282414.868032
111,1528282414.888189,-0.20339300000000002,0.528824,-2.732598,0.364645,0.56087,-0.330381,-0.174401,-0.504518,-0.8456040000000001,-0.082099,0.036545999999999995,0.060524,-19.700943,-9.288361,-18.643524,,,,,,,,1528282414.888189
112,1528282414.9083471,-0.19001700000000002,0.538393,-2.7378240000000003,0.46024,0.537474,-0.286481,-0.162156,-0.512757,-0.843081,-0.08126699999999999,-0.010421,0.080218,-19.413726999999998,-9.496052,-18.663483,,,,,,,,1528282414.9083471
113,1528282414.928504,-0.175622,0.548277,-2.741429,0.422831,0.658676,-0.22997199999999998,-0.14911,-0.521217,-0.840297,-0.134016,0.017983000000000002,0.140086,-18.962967000000003,-9.885838,-19.074768,,,,,,,,1528282414.928504
114,1528282414.9486609,-0.159198,0.555387,-2.746222,0.248286,0.727984,-0.280385,-0.1347,-0.5272720000000001,-0.838952,-0.161031,0.034093,0.13303399999999999,-18.714554,-10.233124,-19.214172,,,,,,,,1528282414.9486609
115,1528282414.968818,-0.13959100000000002,0.5593090000000001,-2.752894,0.096846,0.8177979999999999,-0.314762,-0.11793599999999999,-0.530601,-0.839377,-0.176284,0.0038520000000000004,0.118201,-18.426956,-10.372181,-19.389495999999998,,,,,,,,1528282414.968818
116,1528282414.988975,-0.12113,0.560448,-2.759538,-0.0323,0.646571,-0.24975799999999998,-0.10234800000000001,-0.531566,-0.8408110000000001,-0.158974,0.050319,0.042852,-17.973876999999998,-10.396591,-19.814087,,,,,,,,1528282414.988975
117,1528282415.009133,-0.107209,0.560575,-2.764813,0.009997,0.532369,-0.198432,-0.090627,-0.531673,-0.842087,-0.100215,-0.042805,0.030182,-17.631577,-10.579342,-20.11084,,,,,,,,1528282415.009133
118,1528282415.02929,-0.095551,0.562619,-2.770427,0.058738,0.364289,-0.340325,-0.0807,-0.533403,-0.8420030000000001,-0.169743,-0.0043619999999999996,0.017357,-17.564896,-10.491726,-20.151489,,,,,,,,1528282415.02929
119,1528282415.049447,-0.087756,0.564372,-2.780472,0.018249,0.105433,-0.519686,-0.074053,-0.534885,-0.841674,-0.20559499999999997,0.02663,0.057264999999999996,-17.185745,-10.624310000000001,-20.335266,,,,,,,,1528282415.049447
120,1528282415.069604,-0.08112799999999999,0.564527,-2.793069,-0.09640399999999999,0.006966,-0.5529,-0.068465,-0.5350159999999999,-0.8420629999999999,-0.138352,0.0062840000000000005,0.058814,-17.049622,-10.843727000000001,-20.349915,,,,,,,,1528282415.069604
121,1528282415.089761,-0.075477,0.5611010000000001,-2.804638,-0.288007,0.033408999999999994,-0.457058,-0.063843,-0.532119,-0.844259,-0.107406,0.036254,0.055487,-17.051056,-10.861564999999999,-20.687042,,,,,,,,1528282415.089761
122,1528282415.1099188,-0.06425299999999999,0.553343,-2.817895,-0.528148,0.324475,-0.556726,-0.054626999999999995,-0.5255340000000001,-0.849017,-0.106841,0.064398,0.029802999999999996,-16.830246,-10.873566,-20.731018,,,,,,,,1528282415.1099188
123,1528282415.130076,-0.057526999999999995,0.5426489999999999,-2.8252599999999997,-0.581492,0.110054,-0.183058,-0.049235,-0.516407,-0.854927,-0.051106,-0.096356,-0.098656,-16.614014,-11.010612,-20.898407000000002,,,,,,,,1528282415.130076
124,1528282415.150233,-0.05556799999999999,0.531833,-2.829543,-0.560381,0.041718,-0.274837,-0.047868,-0.5071140000000001,-0.860549,-0.160155,0.040927,-0.042512,-16.539673,-10.832775,-21.190979000000002,,,,,,,,1528282415.150233
125,1528282415.1703901,-0.055145000000000007,0.523088,-2.838078,-0.419295,-0.236731,-0.42726400000000003,-0.047746,-0.499558,-0.864964,-0.207533,-0.008941,-0.087154,-16.686249,-10.853039,-21.205994,,,,,,,,1528282415.1703901
126,1528282415.190547,-0.058637,0.517079,-2.8500959999999997,-0.221165,-0.457375,-0.659722,-0.050942,-0.49434300000000003,-0.8677729999999999,-0.180869,-0.000713,-0.057108000000000006,-16.362060999999997,-10.690758,-21.159119,,,,,,,,1528282415.190547
127,1528282415.210705,-0.060937,0.516428,-2.868853,-0.06171,-0.6560010000000001,-0.816416,-0.052957000000000004,-0.493777,-0.867974,-0.05463200000000001,0.012592,-0.035651,-16.474426,-10.766747,-21.089111,,,,,,,,1528282415.210705
128,1528282415.230862,-0.067189,0.516521,-2.8878880000000002,0.009228,-0.755845,-0.8024220000000001,-0.058379999999999994,-0.493858,-0.8675809999999999,0.043441,0.006904,-0.034259,-16.637726,-11.206467,-21.189087,,,,,,,,1528282415.230862
129,1528282415.251019,-0.074891,0.517138,-2.9060740000000003,-0.031499,-0.8260719999999999,-0.803525,-0.065037,-0.49439399999999994,-0.866801,-0.000545,0.066294,-0.023168,-16.77124,-11.518581,-20.655701,,,,,,,,1528282415.251019
130,1528282415.2711759,-0.082634,0.517406,-2.9240169999999996,-0.053416,-0.756233,-0.793957,-0.07173600000000001,-0.49462799999999996,-0.866139,-0.001018,0.109572,-0.031749,-16.898682,-11.726517,-20.44812,,,,,,,,1528282415.2711759
131,1528282415.291333,-0.08708400000000001,0.5167579999999999,-2.942479,-0.128125,-0.59831,-0.7962229999999999,-0.07561699999999999,-0.49406400000000006,-0.866131,0.032649,0.129425,-0.034565,-16.979767000000002,-11.682404,-20.111694,,,,,,,,1528282415.291333
132,1528282415.311491,-0.088736,0.514352,-2.9603580000000003,-0.193278,-0.464388,-0.730144,-0.077154,-0.491971,-0.867186,0.08797200000000001,0.134549,-0.063432,-17.286835,-12.045498,-19.968384,,,,,,,,1528282415.311491
133,1528282415.331648,-0.090429,0.5136350000000001,-2.976496,0.00557,-0.520616,-0.683976,-0.078653,-0.491346,-0.8674059999999999,0.10816400000000001,0.16937,-0.15626099999999998,-17.335312,-12.278435,-20.038422,,,,,,,,1528282415.331648
134,1528282415.351805,-0.096167,0.518273,-2.9924880000000003,0.27469299999999996,-0.793514,-0.733755,-0.08341,-0.495381,-0.864662,0.08727,0.153858,-0.15847,-17.180908,-12.387772,-19.896759,,,,,,,,1528282415.351805
135,1528282415.3719618,-0.104547,0.525379,-3.009834,0.252909,-0.824526,-0.7989,-0.090283,-0.501541,-0.86041,0.095287,0.09011799999999999,-0.017809000000000002,-17.706543,-12.659348,-19.490479,,,,,,,,1528282415.3719618
136,1528282415.392119,-0.10705799999999999,0.528429,-3.033067,-0.094777,-0.6252260000000001,-1.176269,-0.092279,-0.5041770000000001,-0.858656,0.056329,0.244854,0.044188,-17.581557999999998,-13.279842000000002,-18.973267,,,,,,,,1528282415.392119
137,1528282415.412277,-0.105431,0.527112,-3.060952,-0.18059,-0.673562,-1.085612,-0.090952,-0.503039,-0.8594649999999999,0.11504500000000001,0.03107,-0.016008,-17.543274,-13.813877,-19.037231,,,,,,,,1528282415.412277
138,1528282415.432434,-0.108129,0.527352,-3.083475,-0.021981999999999998,-0.787812,-0.90175,-0.093257,-0.503247,-0.8590959999999999,0.03802,-0.020419,-0.116399,-17.725113,-13.845943,-18.755188,,,,,,,,1528282415.432434
139,1528282415.452591,-0.11224,0.530036,-3.1053040000000003,0.045236,-0.6726770000000001,-1.015931,-0.096636,-0.505564,-0.85736,-0.006986,0.106974,-0.006028,-17.601044,-14.416409,-18.420197,,,,,,,,1528282415.452591
140,1528282415.472748,-0.10870999999999999,0.53276,-3.130137,-0.027123,-0.293658,-1.073764,-0.093459,-0.5079130000000001,-0.856323,0.045837,0.068628,0.05139199999999999,-17.623901,-14.752384,-18.359741,,,,,,,,1528282415.472748
141,1528282415.492906,-0.09805900000000001,0.532417,3.12921,-0.173939,0.043122,-0.959791,-0.084351,-0.507617,-0.8574440000000001,0.065735,0.004123,0.057349000000000004,-17.597504,-14.779125,-18.092682,,,,,,,,1528282415.492906
142,1528282415.5130632,-0.083884,0.5299560000000001,3.109642,-0.203572,0.296,-0.7410140000000001,-0.072293,-0.5054960000000001,-0.8597950000000001,0.127881,-0.038556,0.050789,-17.277206,-15.469833,-18.357117000000002,,,,,,,,1528282415.5130632
143,1528282415.5332198,-0.069608,0.526468,3.0935490000000003,-0.249272,0.26613000000000003,-0.637496,-0.060134,-0.502483,-0.8624930000000001,0.13477999999999998,0.040599,0.035498,-16.636001999999998,-15.824379,-18.395386,,,,,,,,1528282415.5332198
144,1528282415.553377,-0.060888,0.5219060000000001,3.080159,-0.257413,-0.036081,-0.524269,-0.05275,-0.498533,-0.8652639999999999,0.12599200000000002,0.0074140000000000005,0.023986,-16.429245,-15.763496,-18.636414000000002,,,,,,,,1528282415.553377
145,1528282415.573534,-0.060555,0.518487,3.067198,-0.171654,-0.44893900000000003,-0.572109,-0.052564,-0.495567,-0.866978,0.08521799999999999,0.004936,-0.008953000000000001,-16.402451,-15.359364000000001,-18.673126,,,,,,,,1528282415.573534
146,1528282415.593692,-0.06613200000000001,0.517653,3.052882,-0.044689,-0.731282,-0.613522,-0.057426,-0.494842,-0.867083,0.055396,-0.009736,-0.013517,-16.42688,-15.97356,-18.503723,,,,,,,,1528282415.593692
147,1528282415.613849,-0.074026,0.519417,3.038549,0.08709700000000001,-0.7564930000000001,-0.596268,-0.064204,-0.496374,-0.8657309999999999,0.038707,0.000509,-0.013907,-16.415405,-15.955226999999999,-18.456329,,,,,,,,1528282415.613849
148,1528282415.634006,-0.079221,0.522839,3.0247,0.12082899999999999,-0.49658500000000005,-0.625108,-0.068565,-0.499342,-0.8636879999999999,0.014397,0.030424,0.018809,-16.420288,-16.36071,-18.000916,,,,,,,,1528282415.634006
149,1528282415.6541631,-0.077346,0.525215,3.008697,0.032733,-0.246862,-0.690408,-0.066854,-0.5013989999999999,-0.8626290000000001,-0.001307,-0.003102,-0.0025440000000000003,-16.278488,-16.679787,-17.906769,,,,,,,,1528282415.6541631
150,1528282415.67432,-0.07233300000000001,0.5260239999999999,2.9920009999999997,-0.040149000000000004,-0.15549000000000002,-0.7342989999999999,-0.0625,-0.502099,-0.862549,-0.0094,-0.019706,-0.013168000000000001,-16.115082,-16.944328,-18.037964000000002,,,,,,,,1528282415.67432
151,1528282415.694478,-0.065606,0.525981,2.971851,-0.050658,-0.214898,-0.919004,-0.056698,-0.502062,-0.8629709999999999,0.007106,0.012026,-0.047215,-15.990189,-17.346624,-17.990631,,,,,,,,1528282415.694478
152,1528282415.714634,-0.06277200000000001,0.527455,2.950214,0.070306,-0.554629,-0.9080940000000001,-0.054204999999999996,-0.503336,-0.862389,0.097189,-0.015569999999999999,-0.091133,-15.769957999999999,-17.773018,-17.879974,,,,,,,,1528282415.714634
153,1528282415.734792,-0.069816,0.531917,2.931434,0.22516799999999998,-0.94129,-0.74339,-0.060121,-0.5071869999999999,-0.8597370000000001,0.126771,-0.018890999999999998,-0.091527,-15.476166000000001,-17.996696,-17.32196,,,,,,,,1528282415.734792
154,1528282415.754949,-0.082504,0.537961,2.916702,0.252763,-0.985949,-0.617354,-0.07077,-0.512386,-0.855834,0.033554,0.027675,-0.077683,-15.936081,-18.581083,-17.250458,,,,,,,,1528282415.754949
155,1528282415.775105,-0.091442,0.543447,2.902701,0.202042,-0.666291,-0.629242,-0.078159,-0.5170899999999999,-0.852355,-0.033322000000000004,-0.003357,-0.073075,-15.857117,-18.837201999999998,-16.703705,,,,,,,,1528282415.775105
156,1528282415.795264,-0.092665,0.546657,2.88692,0.031075,-0.40622800000000003,-0.698915,-0.07904800000000001,-0.519834,-0.8506020000000001,-0.028588,-0.035891,-0.077712,-15.753281,-18.988884,-16.577667,,,,,,,,1528282415.795264
157,1528282415.815421,-0.092088,0.545585,2.869196,-0.204652,-0.488015,-0.754707,-0.078608,-0.5189189999999999,-0.851202,-0.022985,-0.047915,-0.111002,-15.973938,-18.920113,-16.452423,,,,,,,,1528282415.815421
158,1528282415.835577,-0.095654,0.5409430000000001,2.850625,-0.349439,-0.77415,-0.769767,-0.081872,-0.514945,-0.8533040000000001,-0.044395,-0.066079,-0.180768,-15.811844,-19.239122000000002,-16.310822,,,,,,,,1528282415.835577
159,1528282415.855735,-0.104977,0.5347149999999999,2.831092,-0.389313,-1.031534,-0.817804,-0.090158,-0.509596,-0.855677,-0.123099,-0.0018789999999999998,-0.247258,-15.662445000000002,-19.449299,-16.340270999999998,,,,,,,,1528282415.855735
160,1528282415.875891,-0.113173,0.531054,2.80976,-0.19658,-0.8305899999999999,-0.938258,-0.09737799999999999,-0.5064420000000001,-0.856758,-0.223911,0.049227999999999994,-0.287072,-15.674194,-19.412203,-16.195282000000002,,,,,,,,1528282415.875891
161,1528282415.896049,-0.112877,0.531552,2.786111,-0.047063,-0.44476499999999997,-1.033182,-0.097096,-0.506872,-0.8565360000000001,-0.210689,0.063863,-0.19860999999999998,-15.595535,-19.767311,-15.953369,,,,,,,,1528282415.896049
162,1528282415.916207,-0.106348,0.532984,2.762147,-0.05036,-0.21222800000000003,-1.017228,-0.091424,-0.5081060000000001,-0.8564280000000001,-0.1668,0.07024,-0.091478,-15.233215,-20.13975,-15.950042999999999,,,,,,,,1528282415.916207
163,1528282415.936363,-0.09818099999999999,0.53388,2.7385669999999998,-0.057867999999999996,-0.210202,-1.0001520000000002,-0.084382,-0.508877,-0.856693,-0.164885,0.103726,-0.049053,-14.907348999999998,-20.436523,-16.072937,,,,,,,,1528282415.936363
164,1528282415.956521,-0.09324199999999999,0.535129,2.715682,-0.002997,-0.418001,-0.955191,-0.080091,-0.5099520000000001,-0.856466,-0.14316099999999998,0.121601,-0.031702,-14.731415,-20.801385999999997,-16.008698000000003,,,,,,,,1528282415.956521
165,1528282415.976677,-0.094294,0.53843,2.694123,0.131224,-0.707147,-0.9239950000000001,-0.080833,-0.512789,-0.854701,-0.16083599999999998,0.15056,-0.02567,-14.707138,-21.213873,-15.666808999999999,,,,,,,,1528282415.976677
166,1528282415.996835,-0.098096,0.544383,2.672466,0.233294,-0.712838,-0.963368,-0.083781,-0.51789,-0.851334,-0.189519,0.156349,0.020463,-14.304001000000001,-21.363468,-15.385803,,,,,,,,1528282415.996835
167,1528282416.016993,-0.09866699999999999,0.550469,2.649922,0.171348,-0.549338,-0.98911,-0.083955,-0.523087,-0.848134,-0.168074,0.130982,0.080312,-14.191132000000001,-21.889847,-15.329436999999999,,,,,,,,1528282416.016993
168,1528282416.037149,-0.096174,0.55383,2.626461,0.003022,-0.472587,-1.014964,-0.08167100000000001,-0.525949,-0.8465860000000001,-0.14194600000000002,0.117654,0.12075599999999999,-14.117432,-22.204622,-15.045867999999999,,,,,,,,1528282416.037149
169,1528282416.057307,-0.093334,0.554293,2.6017580000000002,-0.11620799999999999,-0.532258,-1.0578040000000002,-0.07924400000000001,-0.526342,-0.8465719999999999,-0.122706,0.116399,0.121474,-13.581757000000001,-22.55438,-14.834685999999998,,,,,,,,1528282416.057307
170,1528282416.077464,-0.091418,0.553185,2.57573,-0.163063,-0.611974,-1.1048229999999999,-0.077675,-0.5254,-0.847302,-0.104439,0.119745,0.106076,-13.328644,-22.80475,-14.580017000000002,,,,,,,,1528282416.077464
171,1528282416.0976212,-0.090032,0.5526439999999999,2.549079,-0.09603300000000001,-0.62445,-1.119683,-0.076526,-0.524939,-0.847692,-0.09463200000000001,0.11885699999999999,0.07294199999999999,-13.377884,-23.147123,-14.664948,,,,,,,,1528282416.0976212
172,1528282416.117779,-0.08885599999999999,0.553901,2.5228610000000002,-0.005764,-0.638063,-1.098211,-0.07547100000000001,-0.5260090000000001,-0.847123,-0.066268,0.10593499999999999,0.055711000000000004,-12.738205,-23.637239,-14.524597,,,,,,,,1528282416.117779
173,1528282416.1379359,-0.08832999999999999,0.556048,2.497229,0.00055,-0.637025,-1.0843260000000001,-0.074925,-0.527834,-0.846036,-0.077815,0.092989,0.064389,-12.475280999999999,-23.609554,-14.218872,,,,,,,,1528282416.1379359
174,1528282416.158092,-0.087289,0.556812,2.4714139999999998,-0.097233,-0.6203029999999999,-1.089789,-0.074009,-0.528482,-0.8457120000000001,-0.09016,0.081613,0.044519,-12.339675999999999,-23.706192,-14.292572,,,,,,,,1528282416.158092
175,1528282416.17825,-0.085582,0.555555,2.444855,-0.190774,-0.592641,-1.124082,-0.07262300000000001,-0.527415,-0.846498,-0.122202,0.088054,0.003511,-11.701584,-24.216022,-14.011688000000001,,,,,,,,1528282416.17825
176,1528282416.198407,-0.081898,0.553546,2.417152,-0.185132,-0.49975,-1.1689379999999998,-0.06959,-0.5257069999999999,-0.847814,-0.148428,0.098522,-0.065318,-11.383728,-24.266878,-13.965088,,,,,,,,1528282416.198407
177,1528282416.218565,-0.07545299999999999,0.5529029999999999,2.3894490000000004,-0.07728600000000001,-0.348447,-1.153891,-0.06415,-0.5251600000000001,-0.848582,-0.137891,0.110273,-0.106527,-11.082626,-24.178766,-14.027344,,,,,,,,1528282416.218565
178,1528282416.238722,-0.067892,0.554854,2.362954,0.062318,-0.31456100000000004,-1.101408,-0.057663,-0.5268189999999999,-0.8480190000000001,-0.112381,0.101694,-0.108677,-10.885544,-24.58181,-14.03183,,,,,,,,1528282416.238722
179,1528282416.258878,-0.060911,0.558231,2.337919,0.10549800000000001,-0.300645,-1.039433,-0.051632000000000004,-0.529686,-0.84662,-0.10837100000000001,0.090371,-0.075987,-10.128189,-25.082708,-13.737670999999999,,,,,,,,1528282416.258878
180,1528282416.279036,-0.053119000000000006,0.56102,2.314117,0.064062,-0.19878800000000002,-0.9946659999999999,-0.044955,-0.53205,-0.845518,-0.137784,0.084586,-0.062944,-9.555069,-25.017641,-13.813416,,,,,,,,1528282416.279036
181,1528282416.299192,-0.04253,0.563377,2.290311,0.088136,-0.045648,-1.007482,-0.035947,-0.534044,-0.844692,-0.163104,0.096239,-0.082051,-9.312515,-25.453552,-13.950073000000001,,,,,,,,1528282416.299192
182,1528282416.31935,-0.030641,0.567738,2.266999,0.24613200000000002,-0.047174,-0.960305,-0.025830000000000002,-0.537726,-0.842724,-0.133976,0.09374099999999999,-0.106617,-8.739258,-25.742178,-13.830535999999999,,,,,,,,1528282416.31935
183,1528282416.339508,-0.021122,0.57547,2.245055,0.417921,-0.158453,-0.9194959999999999,-0.017719,-0.54423,-0.838749,-0.145581,0.080149,-0.07812100000000001,-7.889099000000001,-26.099209,-13.616698999999999,,,,,,,,1528282416.339508
184,1528282416.359664,-0.012669,0.584838,2.221916,0.449805,-0.243943,-1.013382,-0.010564,-0.5520649999999999,-0.833734,-0.178493,0.058138,-0.011831999999999999,-7.59285,-26.130615,-13.493439000000002,,,,,,,,1528282416.359664
185,1528282416.379822,-0.002076,0.593841,2.19501,0.42963500000000004,-0.185034,-1.178914,-0.001721,-0.559549,-0.8287950000000001,-0.149524,0.097696,0.015868,-6.888565,-26.602825,-13.147766,,,,,,,,1528282416.379822
186,1528282416.3999789,0.011258,0.601963,2.1643369999999997,0.39318000000000003,-0.221297,-1.285717,0.009279,-0.566262,-0.8241729999999999,-0.07557799999999999,0.124275,0.020309,-6.4380489999999995,-26.647479999999998,-12.841919,,,,,,,,1528282416.3999789
187,1528282416.420136,0.02317,0.607927,2.132483,0.258579,-0.35343600000000003,-1.286926,0.019017,-0.571167,-0.8206129999999999,0.004039,0.141876,0.040935,-5.679245,-26.783447,-12.744415,,,,,,,,1528282416.420136
188,1528282416.440294,0.031273,0.608751,2.099894,-0.073603,-0.640975,-1.437815,0.025651,-0.571843,-0.819961,-0.13025,0.183996,0.040847,-5.508774,-27.097255999999998,-12.342773,,,,,,,,1528282416.440294
189,1528282416.46045,0.037127,0.6042029999999999,2.06397,-0.278663,-0.799793,-1.560819,0.030547,-0.5681069999999999,-0.8223870000000001,-0.074477,0.182136,-0.099335,-4.006088,-27.520557,-12.190216,,,,,,,,1528282416.46045
190,1528282416.480608,0.043439,0.5954619999999999,2.022634,-0.351065,-0.845866,-1.682608,0.035952,-0.560891,-0.827108,0.049574,0.109597,-0.21905,-3.2182459999999997,-27.608358000000003,-12.514008,,,,,,,,1528282416.480608
191,1528282416.500765,0.049317,0.586066,1.9801419999999998,-0.352987,-0.8379030000000001,-1.7658909999999999,0.041070999999999996,-0.553087,-0.83211,-0.110849,0.20009100000000002,-0.208906,-2.834641,-27.545467,-12.483551,,,,,,,,1528282416.500765
192,1528282416.5209222,0.055651,0.578244,1.940018,-0.272422,-0.757317,-1.6440970000000001,0.046579,-0.546554,-0.8361270000000001,-0.12066099999999999,0.222854,-0.208841,-2.009445,-27.498606,-12.671082,,,,,,,,1528282416.5209222
193,1528282416.54108,0.062197,0.573856,1.902166,-0.023982,-0.6864140000000001,-1.551979,0.0522,-0.542874,-0.83819,-0.088516,0.21455100000000002,-0.20838,-1.3946690000000002,-27.623487,-12.719666,,,,,,,,1528282416.54108
194,1528282416.5612369,0.067735,0.574731,1.864757,0.23370500000000002,-0.7721720000000001,-1.563381,0.056809000000000005,-0.543609,-0.837414,-0.109971,0.20169,-0.127598,-1.05925,-27.752056,-12.346863,,,,,,,,1528282416.5612369
195,1528282416.581393,0.071728,0.578913,1.825907,0.34231,-0.901581,-1.623002,0.059989,-0.547114,-0.8349049999999999,-0.098197,0.16251600000000002,-0.030299,-0.209961,-27.939221999999997,-12.383545,,,,,,,,1528282416.581393
196,1528282416.601551,0.074461,0.582009,1.785238,0.202388,-1.005336,-1.70216,0.062144000000000005,-0.5497029999999999,-0.833045,-0.10354100000000001,0.111654,0.061271000000000006,0.505646,-27.955326,-12.313934,,,,,,,,1528282416.601551
197,1528282416.6217089,0.077376,0.580534,1.7421200000000001,-0.003668,-1.052059,-1.842275,0.064635,-0.54847,-0.8336680000000001,-0.125822,0.10324900000000001,0.044376,0.8374020000000001,-27.942878999999998,-12.243041999999999,,,,,,,,1528282416.6217089
198,1528282416.641865,0.079925,0.575721,1.6965029999999999,-0.132927,-1.156764,-1.9342290000000002,0.066969,-0.5444399999999999,-0.8361219999999999,-0.106673,0.130804,0.007768000000000001,1.968491,-27.901258000000002,-12.141357000000001,,,,,,,,1528282416.641865
199,1528282416.662023,0.078965,0.569257,1.6505319999999999,-0.179769,-1.369227,-1.9289,0.06644299999999999,-0.539007,-0.839676,-0.07596499999999999,0.159276,-0.043487,2.821686,-28.067971999999997,-12.273163,,,,,,,,1528282416.662023
200,1528282416.6821802,0.073167,0.562861,1.605049,-0.153608,-1.555402,-1.929888,0.061824000000000004,-0.533608,-0.843469,-0.090007,0.194329,-0.089866,3.252457,-27.705801,-12.441101,,,,,,,,1528282416.6821802
201,1528282416.702337,0.065889,0.557837,1.558718,-0.102314,-1.576431,-1.9746669999999997,0.05586,-0.529352,-0.846561,-0.10084299999999999,0.205454,-0.10891400000000001,3.7238309999999997,-27.400694,-12.505035000000001,,,,,,,,1528282416.702337
202,1528282416.722494,0.059477999999999996,0.552805,1.5122659999999999,-0.155065,-1.503577,-1.956598,0.050589,-0.525076,-0.84955,-0.07836,0.19242,-0.101286,4.763412000000001,-27.157604,-12.758331,,,,,,,,1528282416.722494
203,1528282416.742652,0.053829999999999996,0.545074,1.4671889999999999,-0.351106,-1.4413770000000001,-1.9056060000000001,0.046007,-0.5184810000000001,-0.85385,-0.056826,0.154651,-0.07541,5.375961,-27.055349,-13.066436999999999,,,,,,,,1528282416.742652
204,1528282416.762809,0.045587,0.5349729999999999,1.42347,-0.40924299999999997,-1.590506,-1.8725509999999999,0.039204,-0.509818,-0.859389,-0.082707,0.15471500000000002,-0.14111500000000002,5.786789,-26.687022999999996,-13.20752,,,,,,,,1528282416.762809
205,1528282416.782966,0.033912,0.527419,1.380444,-0.21113400000000002,-1.678996,-1.834907,0.029298,-0.503305,-0.863612,-0.116792,0.16012,-0.20163499999999998,6.27536,-26.380703000000004,-13.712128,,,,,,,,1528282416.782966
206,1528282416.803123,0.021541,0.525408,1.33873,0.034206,-1.607996,-1.7662900000000001,0.018634,-0.501566,-0.8649180000000001,-0.12401199999999998,0.158869,-0.181453,6.615355999999999,-25.903294,-13.844085999999999,,,,,,,,1528282416.803123
207,1528282416.82328,0.011396,0.526219,1.298505,0.061228,-1.455227,-1.705439,0.009854,-0.502268,-0.864656,-0.10101,0.130747,-0.089614,6.7976529999999995,-25.821754000000002,-14.125732000000001,,,,,,,,1528282416.82328
208,1528282416.8434381,0.001997,0.525614,1.259551,-0.08441,-1.448761,-1.653303,0.0017280000000000002,-0.501744,-0.865014,-0.080997,0.115819,-0.031898,7.431366000000001,-25.707499,-14.248291,,,,,,,,1528282416.8434381
209,1528282416.863595,-0.008718,0.521509,1.221724,-0.285085,-1.455488,-1.608711,-0.007559000000000001,-0.49818900000000005,-0.867035,-0.091501,0.106695,-0.003952000000000001,7.6315,-25.420822,-14.570251,,,,,,,,1528282416.863595
210,1528282416.8837519,-0.017130000000000003,0.513389,1.184061,-0.49694499999999997,-1.26264,-1.6378489999999999,-0.014921,-0.49113199999999996,-0.870957,-0.126391,0.077467,-0.001586,8.009979,-24.91239,-14.745422,,,,,,,,1528282416.8837519
211,1528282416.903909,-0.020242,0.502657,1.145676,-0.5824060000000001,-0.974424,-1.646569,-0.017737,-0.48175500000000004,-0.8761260000000001,-0.083963,0.042089,-0.021625,8.571823,-24.624615,-15.219695999999999,,,,,,,,1528282416.903909
212,1528282416.924066,-0.021164,0.493073,1.1093709999999999,-0.425354,-0.904223,-1.5172,-0.018641,-0.47333500000000006,-0.880685,0.008784,0.008888,-0.088019,9.180297999999999,-23.978251,-15.645325,,,,,,,,1528282416.924066
213,1528282416.9442232,-0.026519,0.489604,1.0772540000000002,-0.06855599999999999,-1.1046479999999999,-1.326656,-0.023400999999999998,-0.470276,-0.882209,0.050211,-0.007828,-0.134332,9.403244,-23.499538,-16.106995,,,,,,,,1528282416.9442232
214,1528282416.964381,-0.03758,0.49210200000000004,1.048167,0.149476,-1.280286,-1.2868389999999998,-0.033113,-0.472479,-0.880719,-0.014616,-0.017633000000000003,-0.080661,9.473846,-23.56155,-16.119537,,,,,,,,1528282416.964381
215,1528282416.984538,-0.04742,0.49687700000000007,1.016408,0.166002,-1.166123,-1.474752,-0.04167,-0.47668299999999997,-0.8780870000000001,-0.085115,-0.030886,-0.013606,9.604202,-23.399261,-16.374969,,,,,,,,1528282416.984538
216,1528282417.004695,-0.048649,0.500221,0.9806440000000001,0.03402,-0.741834,-1.603142,-0.042672,-0.47961899999999996,-0.8764379999999999,-0.066413,-0.008616,0.032108,9.861725,-22.973986,-16.405304,,,,,,,,1528282417.004695
217,1528282417.024852,-0.041162,0.5009060000000001,0.9432370000000001,-0.073951,-0.42129399999999995,-1.637518,-0.036095,-0.48022,-0.8764049999999999,-0.038094,-0.0036659999999999996,0.018876,10.113068,-22.72315,-16.515015,,,,,,,,1528282417.024852
218,1528282417.045009,-0.030657999999999998,0.500269,0.905243,-0.08798099999999999,-0.39003499999999997,-1.6567580000000002,-0.026897000000000004,-0.47966099999999995,-0.877041,-0.014180000000000002,-0.011245,0.008801,10.936919999999999,-22.457794,-16.746979,,,,,,,,1528282417.045009
219,1528282417.065167,-0.022236000000000002,0.500203,0.867643,-0.00403,-0.528728,-1.614982,-0.01951,-0.479604,-0.877268,-0.007819,-0.027049,-0.010443000000000001,11.701004,-21.927902,-16.907593,,,,,,,,1528282417.065167
220,1528282417.085324,-0.016094999999999998,0.502657,0.831217,0.15441,-0.575461,-1.573135,-0.014103999999999998,-0.481756,-0.876192,-0.03918,-0.043910000000000005,-0.016371,12.306213,-21.599199,-16.97113,,,,,,,,1528282417.085324
221,1528282417.1054811,-0.010161,0.5083270000000001,0.796207,0.31054,-0.506128,-1.484335,-0.008876,-0.486717,-0.8735139999999999,-0.032704000000000004,-0.05759500000000001,-0.000128,12.440872,-21.265621,-16.968689,,,,,,,,1528282417.1054811
222,1528282417.125638,-0.002768,0.5150279999999999,0.7635529999999999,0.30804000000000004,-0.389295,-1.37974,-0.002409,-0.492559,-0.870275,-0.046816,-0.083414,0.046301,13.061356,-21.099669,-16.904510000000002,,,,,,,,1528282417.125638
223,1528282417.1457949,0.006145,0.5194409999999999,0.731902,0.154323,-0.299745,-1.366075,0.005335,-0.496395,-0.86808,-0.085123,-0.098271,0.08254299999999999,13.48674,-20.655653,-16.80246,,,,,,,,1528282417.1457949
224,1528282417.165952,0.016743,0.520256,0.7000149999999999,0.010487,-0.241312,-1.364132,0.014527000000000002,-0.49710299999999996,-0.8675700000000001,-0.07779,-0.116102,0.071366,13.791122,-20.191426999999997,-16.836609,,,,,,,,1528282417.165952
225,1528282417.18611,0.027320999999999998,0.520324,0.6692140000000001,0.073853,-0.230525,-1.299994,0.023702,-0.49716099999999996,-0.867334,-0.08251,-0.10528599999999999,0.027093,14.462418,-20.397308,-16.938446,,,,,,,,1528282417.18611
226,1528282417.2062669,0.036910000000000005,0.523363,0.639528,0.267381,-0.285702,-1.2538280000000002,0.031962,-0.499796,-0.865553,-0.06983500000000001,-0.11507200000000001,0.025557,15.105529999999998,-20.056437,-16.923767,,,,,,,,1528282417.2062669
227,1528282417.226424,0.044861,0.529449,0.610916,0.383355,-0.33925500000000003,-1.1885430000000001,0.038706,-0.505057,-0.862217,-0.058328,-0.129815,0.067036,15.358597,-19.617682000000002,-16.98114,,,,,,,,1528282417.226424
228,1528282417.246581,0.051612,0.5356609999999999,0.582762,0.336045,-0.385804,-1.19286,0.044363,-0.510409,-0.858786,-0.074393,-0.155133,0.101798,15.882156,-19.367770999999998,-16.839691000000002,,,,,,,,1528282417.246581
229,1528282417.2667382,0.05939199999999999,0.539652,0.554024,0.23028200000000001,-0.303331,-1.2175719999999999,0.050922,-0.513837,-0.856375,-0.08263,-0.14363299999999998,0.100988,16.023209,-19.196669,-16.672943,,,,,,,,1528282417.2667382
230,1528282417.286895,0.07008500000000001,0.542263,0.525042,0.209819,-0.159125,-1.2165629999999998,0.05998200000000001,-0.516076,-0.85444,-0.063873,-0.13108,0.081079,16.364639,-18.714056,-16.58725,,,,,,,,1528282417.286895
231,1528282417.3070529,0.082549,0.545998,0.49687200000000004,0.331955,-0.081285,-1.142755,0.070467,-0.519271,-0.851699,-0.025118,-0.110306,0.043014,16.829285000000002,-18.352411,-16.655487,,,,,,,,1528282417.3070529
232,1528282417.32721,0.09388099999999999,0.55291,0.470866,0.493465,-0.143484,-1.022956,0.079775,-0.525166,-0.847252,-0.000521,-0.100719,0.035591000000000005,17.664597,-18.064054000000002,-16.581055,,,,,,,,1528282417.32721
233,1528282417.347367,0.10340999999999999,0.560936,0.446795,0.466893,-0.164476,-0.9503870000000001,0.087407,-0.531979,-0.842234,-0.004277,-0.094959,0.09762,17.749405,-17.937675,-16.362274,,,,,,,,1528282417.347367
234,1528282417.367524,0.112374,0.5663,0.423674,0.307635,-0.167647,-0.923892,0.09463200000000001,-0.536513,-0.838569,0.005465,-0.090654,0.106834,18.19986,-17.627975,-16.288605,,,,,,,,1528282417.367524
235,1528282417.387681,0.121493,0.568775,0.401912,0.191076,-0.093178,-0.870674,0.102113,-0.538601,-0.83635,0.014128,-0.06465599999999999,0.06804,18.465607000000002,-17.456974,-16.291718,,,,,,,,1528282417.387681
236,1528282417.407838,0.13228900000000002,0.56975,0.38182699999999997,0.13425499999999999,0.05148200000000001,-0.788567,0.11106700000000001,-0.5394220000000001,-0.834678,0.031160000000000004,-0.047798,0.023597,18.600739,-17.190474,-16.030487,,,,,,,,1528282417.407838
237,1528282417.4279962,0.143054,0.570469,0.364601,0.149676,0.059507000000000004,-0.6593640000000001,0.11999100000000001,-0.540027,-0.83305,0.052098,-0.022565,-0.039905,19.009445,-16.902079,-15.944823999999999,,,,,,,,1528282417.4279962
238,1528282417.448153,0.150924,0.573566,0.34974,0.261864,-0.053459000000000007,-0.564175,0.12629100000000001,-0.5426310000000001,-0.8304229999999999,0.053640999999999994,0.00048600000000000005,-0.070685,19.476318,-16.85331,-15.898102,,,,,,,,1528282417.448153
239,1528282417.4683099,0.15521,0.5785279999999999,0.336458,0.322336,-0.193579,-0.47972,0.129431,-0.5467920000000001,-0.827203,0.07733999999999999,-0.015585,-0.064399,19.531387,-16.473618,-15.854034,,,,,,,,1528282417.4683099
240,1528282417.488467,0.156701,0.5826359999999999,0.32558899999999996,0.204545,-0.232485,-0.373094,0.130313,-0.550227,-0.824784,0.08605700000000001,0.000101,-0.044860000000000004,19.488723999999998,-16.467659,-15.678192000000001,,,,,,,,1528282417.488467
241,1528282417.508624,0.156349,0.583851,0.31752800000000003,0.064304,-0.24771700000000002,-0.285717,0.129918,-0.551241,-0.824168,0.07041499999999999,0.021609,-0.074666,19.439438,-16.389874,-15.622955,,,,,,,,1528282417.508624
242,1528282417.528781,0.155405,0.583234,0.311029,0.014018000000000001,-0.214757,-0.256961,0.129193,-0.550726,-0.824626,0.020603,0.03472,-0.108174,19.639618,-16.011303,-16.053986,,,,,,,,1528282417.528781
243,1528282417.548939,0.15565299999999999,0.583182,0.303888,0.082857,-0.178529,-0.315605,0.129402,-0.550683,-0.824623,-0.021827000000000003,0.041222,-0.11760699999999999,19.472137,-15.992844,-16.023224,,,,,,,,1528282417.548939
244,1528282417.569096,0.157049,0.583773,0.29429299999999997,0.075114,-0.22219499999999998,-0.418101,0.130502,-0.551176,-0.8241200000000001,-0.025934,0.044508,-0.050041,19.420212,-15.937538,-15.906006,,,,,,,,1528282417.569096
245,1528282417.589253,0.15823199999999998,0.581625,0.283578,-0.088027,-0.24230500000000002,-0.45246800000000004,0.131663,-0.549383,-0.825132,-0.020869,0.048711000000000004,0.010159999999999999,19.768463,-15.870135999999999,-16.126831,,,,,,,,1528282417.589253
246,1528282417.60941,0.160207,0.57695,0.273625,-0.160275,-0.129743,-0.42802799999999996,0.133701,-0.54547,-0.8273969999999999,-0.046649,0.063766,0.028904000000000003,19.860367,-15.519451,-16.186127,,,,,,,,1528282417.60941
247,1528282417.629567,0.16347799999999998,0.572783,0.264617,-0.06335299999999999,-0.062569,-0.401229,0.136775,-0.5419729999999999,-0.829191,-0.048213,0.054470000000000005,0.031385,19.746765,-15.290337,-16.142151000000002,,,,,,,,1528282417.629567
248,1528282417.649724,0.166692,0.572723,0.254143,0.194419,-0.139435,-0.464946,0.139445,-0.5419229999999999,-0.828779,-0.065608,0.03646,0.039945,19.97583,-15.289772,-16.425902999999998,,,,,,,,1528282417.649724
249,1528282417.669882,0.168981,0.577086,0.24059699999999998,0.386283,-0.309153,-0.554344,0.140943,-0.5455840000000001,-0.826119,-0.051739999999999994,0.02593,0.087533,19.689957,-15.132366000000001,-16.399261,,,,,,,,1528282417.669882
250,1528282417.6900392,0.169299,0.583129,0.224931,0.411196,-0.453006,-0.618341,0.140647,-0.550639,-0.822809,-0.034156,0.024455,0.163294,19.706557999999998,-15.063892000000001,-16.495697,,,,,,,,1528282417.6900392
251,1528282417.710196,0.168259,0.587723,0.208558,0.27789899999999995,-0.49461700000000003,-0.629179,0.13936600000000002,-0.554467,-0.8204530000000001,-0.010292,0.008995999999999999,0.219119,19.706116,-14.831966,-16.159637,,,,,,,,1528282417.710196
252,1528282417.7303529,0.16798,0.588006,0.193465,0.017903,-0.39496,-0.600701,0.13911099999999998,-0.554703,-0.8203370000000001,0.002659,0.012695,0.250436,19.85585,-14.512526999999999,-16.493988,,,,,,,,1528282417.7303529
253,1528282417.75051,0.16701300000000002,0.584232,0.180382,-0.13793,-0.43381400000000003,-0.544304,0.138665,-0.551559,-0.8225290000000001,0.01229,0.021591,0.191502,19.68129,-14.138584,-16.717865,,,,,,,,1528282417.75051
254,1528282417.770667,0.164588,0.580509,0.16791099999999998,-0.043022000000000005,-0.482842,-0.542034,0.137005,-0.54845,-0.824883,-0.018550999999999998,0.06575299999999999,0.101204,19.873917000000002,-14.033615,-16.810242000000002,,,,,,,,1528282417.770667
255,1528282417.790825,0.160801,0.580371,0.154789,0.14787,-0.580887,-0.539636,0.133893,-0.548334,-0.825471,-0.003064,0.038232999999999996,0.06565900000000001,19.668701000000002,-14.069275,-16.858276,,,,,,,,1528282417.790825
256,1528282417.810982,0.156257,0.581363,0.141094,0.08541599999999999,-0.589721,-0.5642699999999999,0.130055,-0.549164,-0.8255319999999999,0.000346,0.024857,0.144716,19.809326000000002,-13.724201,-17.199127,,,,,,,,1528282417.810982
257,1528282417.831139,0.152543,0.576725,0.127589,-0.304492,-0.533512,-0.603208,0.127374,-0.5452819999999999,-0.828518,0.035925,-8.3e-05,0.22871100000000003,19.653519,-13.637699,-17.21817,,,,,,,,1528282417.831139
258,1528282417.8512962,0.147502,0.563081,0.116129,-0.759375,-0.60535,-0.5279590000000001,0.124278,-0.533794,-0.836432,0.104039,-0.023091,0.238531,19.662354,-13.348415,-17.769470000000002,,,,,,,,1528282417.8512962
