timestamp(unix),attitude_roll(radians),attitude_pitch(radians),attitude_yaw(radians),rotation_rate_x(radians/s),rotation_rate_y(radians/s),rotation_rate_z(radians/s),gravity_x(G),gravity_y(G),gravity_z(G),user_acc_x(G),user_acc_y(G),user_acc_z(G),magnetic_field_x(microteslas),magnetic_field_y(microteslas),magnetic_field_z(microteslas),latitude(degree),longitude(degree),altitude(meter),speed(m/s),course(degree),timestamp(unix),User Mark
1528191366.629259,0.222282,0.414978,3.029861,0.081549,0.027636,-0.031894,0.201745,-0.403170,-0.892610,-0.009743,-0.008558,0.022951,-7.865158,-20.561232,-44.534790,,,,,,,
,,,,,,,,,,,,,,,,52.333474,4.864636,-0.879812,-1.000000,-1.000000,1528191218.050151,
,,,,,,,,,,,,,,,,52.333474,4.864636,-0.879812,-1.000000,-1.000000,1528191227.050151,
1528191366.649412,0.223803,0.415335,3.028903,-0.016314,0.054068,-0.040563,0.203071,-0.403496,-0.892162,-0.014365,-0.014244,0.033184,-7.769333,-20.615820,-44.690002,,,,,,,
,,,,,,,,,,,,,,,,52.336613,4.866737,-0.879812,-1.000000,-1.000000,1528191366.646678,
1528191366.669565,0.224085,0.413358,3.028554,-0.127022,-0.025182,-0.037478,0.203498,-0.401687,-0.892881,-0.004219,-0.010361,0.021634,-7.822998,-20.817045,-44.775787,,,,,,,
,,,,,,,,,,,,,,,,52.336809,4.866868,-0.879812,-1.000000,-1.000000,1528191366.651943,
1528191366.689717,0.223504,0.410418,3.028388,-0.140778,-0.027395,-0.041772,0.203241,-0.398992,-0.894147,0.000586,0.000616,0.015378,-7.902573,-20.467800,-44.635895,,,,,,,
1528191366.709870,0.223724,0.407371,3.028067,-0.152921,0.024273,-0.048201,0.203706,-0.396197,-0.895283,-0.000948,0.006350,0.001637,-7.861557,-20.453857,-44.870087,,,,,,,
1528191366.730023,0.223929,0.404199,3.028029,-0.145289,-0.003791,-0.028969,0.204168,-0.393283,-0.896462,0.020060,0.012195,-0.027244,-7.704575,-20.316114,-44.897980,,,,,,,
1528191366.750176,0.224038,0.402342,3.028132,-0.054352,0.024612,-0.008572,0.204427,-0.391574,-0.897151,0.022196,0.016803,-0.037496,-7.881668,-20.207708,-44.957489,,,,,,,
1528191366.770329,0.225175,0.402724,3.028183,0.052362,0.065984,0.019311,0.205414,-0.391926,-0.896772,0.020477,0.017139,-0.035311,-7.780777,-20.509102,-45.289825,,,,,,,
1528191366.790481,0.226002,0.405085,3.028546,0.142702,0.040445,0.054659,0.205947,-0.394097,-0.895697,0.015702,0.009484,-0.024133,-7.707626,-20.383698,-44.759644,,,,,,,
1528191366.810634,0.226202,0.408829,3.029048,0.193885,0.009410,0.070745,0.205794,-0.397535,-0.894211,0.004731,0.005705,-0.008804,-7.899841,-20.432749,-44.782043,,,,,,,
1528191366.830787,0.226155,0.413229,3.029588,0.211929,0.009525,0.068638,0.205359,-0.401569,-0.892508,-0.007773,-0.001446,0.014288,-7.549896,-20.396881,-44.718781,,,,,,,
1528191366.850940,0.226147,0.417050,3.029626,0.164507,-0.012066,0.028011,0.205006,-0.405065,-0.891008,-0.012074,-0.004557,0.025941,-7.843338,-20.557598,-44.646973,,,,,,,
1528191366.871093,0.225709,0.419397,3.029385,0.089377,-0.029628,0.010835,0.204402,-0.407210,-0.890169,-0.005870,-0.007478,0.030351,-7.677887,-20.738689,-44.567902,,,,,,,
1528191366.891245,0.225145,0.420314,3.029276,0.020423,-0.032126,0.005421,0.203817,-0.408047,-0.889919,-0.008306,-0.002033,0.023785,-7.955643,-20.939867,-44.544250,,,,,,,
1528191366.911398,0.224198,0.420101,3.029476,-0.028261,-0.046408,0.006423,0.202993,-0.407853,-0.890197,-0.004873,-0.003631,0.005797,-7.856262,-20.914240,-44.501587,,,,,,,
1528191366.931551,0.223418,0.419676,3.029600,-0.007195,-0.025780,-0.003167,0.202336,-0.407465,-0.890524,-0.008657,0.001001,-0.010538,-7.915451,-20.944746,-44.686432,,,,,,,
1528191366.951704,0.223218,0.420535,3.029330,0.074378,-0.011351,0.001202,0.202081,-0.408249,-0.890222,0.001151,0.003266,-0.017935,-7.691315,-20.840511,-44.652588,,,,,,,
1528191366.971857,0.222834,0.422631,3.028951,0.119125,-0.032679,0.008743,0.201550,-0.410161,-0.889464,0.002826,0.006108,-0.015978,-7.850815,-21.078403,-44.551025,,,,,,,
1528191366.992009,0.222395,0.425219,3.028722,0.127524,-0.027314,0.021564,0.200924,-0.412520,-0.888514,0.009906,0.005782,-0.011251,-7.788010,-21.072437,-44.444550,,,,,,,
1528191367.012162,0.222142,0.427987,3.028796,0.138805,0.008195,0.039719,0.200447,-0.415040,-0.887447,0.001167,0.003663,0.002727,-7.594177,-21.177282,-44.304932,,,,,,,
1528191367.032315,0.222491,0.431055,3.028965,0.149241,0.026549,0.041860,0.200475,-0.417829,-0.886131,-0.003774,-0.000292,0.007774,-7.563538,-21.185457,-44.260956,,,,,,,
1528191367.052468,0.222801,0.433546,3.028786,0.099756,-0.002609,0.004437,0.200519,-0.420091,-0.885051,-0.006763,-0.004072,0.006725,-7.632019,-21.563084,-44.256500,,,,,,,
,,,,,,,,,,,,,,,,52.333565,4.864727,-0.588045,-1.000000,-1.000000,1528191367.013601,
1528191367.072621,0.222752,0.434686,3.028110,0.043748,-0.020012,-0.021246,0.200370,-0.421126,-0.884593,0.001458,-0.000520,0.003993,-7.774033,-21.541979,-44.297089,,,,,,,
1528191367.092773,0.222732,0.435580,3.027857,0.055106,0.002483,0.012919,0.200269,-0.421936,-0.884230,0.001513,0.008438,0.000349,-7.717377,-21.530762,-44.243103,,,,,,,
1528191367.112926,0.222676,0.437332,3.028205,0.095345,0.000390,0.045007,0.200056,-0.423524,-0.883518,0.006945,0.006166,0.002430,-8.035385,-21.529781,-43.943268,,,,,,,
1528191367.133079,0.222361,0.439315,3.028646,0.080581,-0.005012,0.032175,0.199592,-0.425320,-0.882761,-0.002738,0.003780,0.016351,-7.922867,-21.502893,-44.042023,,,,,,,
1528191367.153232,0.222170,0.440186,3.028787,0.014947,-0.014951,0.009674,0.199342,-0.426108,-0.882437,0.002090,-0.004266,0.015341,-7.862259,-21.671923,-43.951782,,,,,,,
1528191367.173385,0.221457,0.440001,3.029023,-0.014592,-0.033419,0.008572,0.198730,-0.425941,-0.882656,-0.002060,-0.001641,0.004054,-7.948883,-21.828316,-44.058319,,,,,,,
1528191367.193537,0.220852,0.439949,3.029283,0.003340,-0.022560,0.010729,0.198200,-0.425894,-0.882797,-0.002460,0.000723,-0.004898,-7.811737,-21.720303,-43.878998,,,,,,,
1528191367.213690,0.220595,0.440278,3.029462,0.016955,-0.004174,0.011817,0.197943,-0.426191,-0.882711,-0.004003,0.002546,-0.003351,-7.967697,-21.715313,-43.921509,,,,,,,
1528191367.233843,0.220574,0.440568,3.029589,0.008427,0.001169,0.009662,0.197897,-0.426453,-0.882595,-0.001456,0.000245,-0.001453,-7.909668,-21.658381,-44.138428,,,,,,,
1528191367.253996,0.220639,0.440811,3.029725,0.010496,0.005474,0.012870,0.197932,-0.426673,-0.882481,0.000844,-0.000360,0.002782,-7.641037,-21.882561,-43.975922,,,,,,,
1528191367.274149,0.220352,0.441275,3.030056,0.027619,-0.012793,0.022502,0.197635,-0.427093,-0.882344,0.001278,0.001587,-0.001475,-7.845688,-21.702291,-44.085449,,,,,,,
1528191367.294301,0.219925,0.442128,3.030369,0.041435,-0.014870,0.022521,0.197179,-0.427864,-0.882073,0.003245,0.004585,0.003182,-7.807312,-21.764643,-44.348511,,,,,,,
1528191367.314454,0.219530,0.442888,3.030647,0.026540,-0.010638,0.021434,0.196760,-0.428551,-0.881833,0.003496,0.005348,0.008161,-7.807388,-21.996538,-44.156158,,,,,,,
1528191367.334607,0.219174,0.443136,3.031115,-0.003272,-0.001122,0.023528,0.196423,-0.428774,-0.881800,-0.001461,0.003420,0.004297,-7.877121,-21.970266,-43.960449,,,,,,,
1528191367.354760,0.219043,0.442876,3.031808,-0.026742,0.009477,0.030966,0.196332,-0.428540,-0.881934,0.000720,-0.001621,0.002433,-7.759476,-22.105873,-44.223053,,,,,,,
1528191367.374912,0.218953,0.442407,3.032664,-0.028955,0.018081,0.032036,0.196296,-0.428116,-0.882148,-0.002768,-0.002258,0.000800,-7.763123,-22.041950,-44.286102,,,,,,,
1528191367.395065,0.219151,0.441998,3.033288,-0.022562,0.020342,0.018163,0.196509,-0.427747,-0.882280,-0.002539,-0.003619,0.004182,-7.492340,-22.043161,-44.053162,,,,,,,
1528191367.415218,0.219007,0.441791,3.033663,-0.007402,-0.009706,0.012848,0.196401,-0.427559,-0.882394,0.002528,-0.002113,0.005563,-7.828491,-22.106123,-44.123566,,,,,,,
1528191367.435371,0.218082,0.441928,3.034092,0.007857,-0.057084,0.026758,0.195572,-0.427683,-0.882518,0.007034,0.002589,-0.001210,-7.639206,-22.114061,-44.506653,,,,,,,
1528191367.455524,0.216792,0.442605,3.034583,0.039484,-0.036463,0.031069,0.194371,-0.428295,-0.882487,-0.002599,0.004757,0.000056,-7.679047,-21.928301,-44.169342,,,,,,,
1528191367.475676,0.216372,0.443584,3.034869,0.042425,-0.005136,0.016116,0.193910,-0.429180,-0.882159,-0.006410,0.002941,-0.009397,-7.574631,-21.824854,-44.183441,,,,,,,
1528191367.495829,0.216227,0.444374,3.034965,0.037132,-0.005153,0.012902,0.193709,-0.429893,-0.881855,-0.000045,-0.000832,-0.009655,-7.551727,-21.995985,-44.233246,,,,,,,
1528191367.515982,0.216217,0.445199,3.035109,0.042269,0.011004,0.018244,0.193624,-0.430638,-0.881510,0.001307,0.000981,-0.000280,-7.710907,-22.029156,-44.138519,,,,,,,
1528191367.536135,0.216168,0.446270,3.035513,0.047615,0.001256,0.034267,0.193482,-0.431604,-0.881069,-0.003449,-0.000907,0.001995,-7.877151,-22.113741,-44.065094,,,,,,,
1528191367.556288,0.215886,0.447215,3.035960,0.040280,-0.005180,0.022521,0.193146,-0.432456,-0.880725,-0.006592,0.000205,0.002582,-7.538986,-22.073364,-44.149475,,,,,,,
1528191367.576440,0.215805,0.448005,3.035990,0.038199,-0.001861,0.002224,0.193002,-0.433168,-0.880406,-0.005440,-0.000746,0.006047,-7.701813,-21.972906,-44.115540,,,,,,,
1528191367.596593,0.215757,0.448723,3.035794,0.030912,-0.015876,-0.002047,0.192893,-0.433815,-0.880112,0.001000,0.000450,0.002762,-7.816208,-22.123436,-44.005951,,,,,,,
1528191367.616746,0.215211,0.449268,3.035682,0.026788,-0.031012,0.004356,0.192361,-0.434306,-0.879986,0.004859,0.001338,-0.001057,-8.038223,-22.030935,-43.955811,,,,,,,
1528191367.636899,0.214967,0.450071,3.035818,0.045472,0.007784,0.020389,0.192072,-0.435029,-0.879692,0.002188,0.002412,-0.000588,-7.743408,-22.016317,-43.993408,,,,,,,
1528191367.657051,0.214841,0.451229,3.036146,0.057309,-0.012666,0.030015,0.191854,-0.436072,-0.879223,0.002634,0.005331,-0.007892,-7.659241,-22.099720,-44.004761,,,,,,,
1528191367.677204,0.214285,0.452553,3.036527,0.064792,-0.018005,0.028957,0.191242,-0.437263,-0.878765,-0.001819,0.001182,0.004116,-7.683975,-22.279484,-43.996887,,,,,,,
1528191367.697357,0.213741,0.453936,3.036649,0.070231,-0.026507,0.012952,0.190636,-0.438506,-0.878277,-0.007698,-0.000611,0.000088,-7.999100,-22.238476,-43.864685,,,,,,,
1528191367.717510,0.213465,0.455439,3.036426,0.079702,-0.014557,0.003352,0.190253,-0.439857,-0.877684,-0.005667,-0.002190,-0.000520,-7.551620,-22.591570,-44.140991,,,,,,,
1528191367.737663,0.213159,0.456982,3.036140,0.074425,-0.018910,0.006551,0.189841,-0.441242,-0.877078,-0.003180,-0.002194,-0.001355,-7.760468,-22.414843,-43.901184,,,,,,,
1528191367.757815,0.213009,0.458114,3.035999,0.044530,-0.000777,0.008644,0.189604,-0.442258,-0.876618,-0.001585,-0.002094,0.004349,-7.953995,-22.459394,-43.766541,,,,,,,
1528191367.777968,0.213278,0.458669,3.036137,0.017740,0.025988,0.010738,0.189788,-0.442755,-0.876327,-0.005324,0.000189,0.008636,-7.861877,-22.569950,-43.968811,,,,,,,
1528191367.798121,0.213767,0.458954,3.036226,0.011437,0.021685,0.003258,0.190189,-0.443011,-0.876110,-0.001484,-0.003431,0.008114,-8.024734,-22.582993,-43.640564,,,,,,,
1528191367.818274,0.213787,0.459282,3.036016,0.023499,-0.013709,-0.012736,0.190176,-0.443304,-0.875965,0.002527,0.000738,0.001285,-7.938828,-22.871056,-43.859436,,,,,,,
1528191367.838427,0.213777,0.459751,3.035451,0.025622,-0.011501,-0.020203,0.190123,-0.443725,-0.875763,-0.001723,0.004272,-0.000366,-7.887589,-22.776049,-43.574249,,,,,,,
1528191367.858579,0.213935,0.459954,3.035066,0.002040,0.009850,-0.009566,0.190242,-0.443907,-0.875645,0.001256,0.000563,0.000172,-7.916779,-22.432251,-43.936707,,,,,,,
1528191367.878732,0.214148,0.459814,3.035253,-0.015025,0.010718,0.012837,0.190442,-0.443781,-0.875665,0.002963,0.000849,0.002252,-7.837250,-22.512634,-43.769531,,,,,,,
1528191367.898885,0.214062,0.459822,3.035682,0.008336,0.006485,0.022471,0.190366,-0.443788,-0.875678,0.002535,0.002458,0.001716,-8.135849,-22.603966,-43.820618,,,,,,,
1528191367.919038,0.214178,0.460440,3.035819,0.034958,0.002410,0.006494,0.190409,-0.444342,-0.875388,0.000142,0.003485,-0.000253,-7.933075,-22.598776,-43.604462,,,,,,,
1528191367.939190,0.213803,0.461231,3.035571,0.041682,-0.031960,-0.004164,0.190006,-0.445051,-0.875115,0.004894,0.004133,0.002893,-7.588074,-22.590820,-43.701904,,,,,,,
1528191367.959343,0.213464,0.461792,3.035593,0.014807,-0.002054,0.015010,0.189657,-0.445553,-0.874936,0.005458,0.002789,0.014279,-7.765488,-22.602390,-43.758820,,,,,,,
1528191367.979496,0.213348,0.461677,3.036075,-0.026690,0.006296,0.022432,0.189566,-0.445450,-0.875008,-0.001928,-0.002014,0.004708,-7.894104,-22.598312,-43.795898,,,,,,,
1528191367.999649,0.212969,0.461159,3.036694,-0.021190,-0.011951,0.016036,0.189284,-0.444987,-0.875305,-0.005018,-0.002249,-0.007309,-8.133514,-22.454596,-43.593994,,,,,,,
1528191368.019802,0.212717,0.461566,3.036750,0.047801,-0.007184,0.001174,0.189025,-0.445351,-0.875175,-0.004546,-0.000984,-0.007195,-7.886154,-22.569937,-43.716888,,,,,,,
1528191368.039954,0.212571,0.462993,3.036328,0.080916,-0.028519,-0.003050,0.188762,-0.446628,-0.874581,-0.001949,0.001697,-0.005164,-7.913559,-22.548931,-43.472992,,,,,,,
1528191368.060107,0.212091,0.464427,3.036063,0.057472,-0.022241,0.007598,0.188207,-0.447911,-0.874045,-0.004018,0.003987,0.011252,-7.746796,-22.598019,-43.674622,,,,,,,
1528191368.080260,0.212296,0.464596,3.036055,-0.027895,0.030113,-0.002130,0.188370,-0.448062,-0.873932,-0.009431,-0.001080,0.021362,-8.130249,-22.611061,-43.600159,,,,,,,
1528191368.100413,0.212855,0.463040,3.036354,-0.099001,0.029731,-0.003281,0.189006,-0.446670,-0.874507,-0.003124,-0.003663,0.004283,-7.987061,-22.608252,-43.463318,,,,,,,
1528191368.120565,0.213094,0.461504,3.036726,-0.049055,0.021350,0.003181,0.189360,-0.445295,-0.875131,0.004061,-0.001406,-0.012076,-7.875488,-22.730761,-43.624329,,,,,,,
1528191368.140718,0.213513,0.461809,3.036832,0.048669,0.010004,0.010781,0.189698,-0.445568,-0.874919,0.007659,0.001827,-0.014745,-7.759445,-22.581987,-43.596863,,,,,,,
1528191368.160871,0.212851,0.463534,3.036819,0.097964,-0.043629,0.020462,0.188956,-0.447112,-0.874292,0.004190,0.001937,-0.006552,-7.735809,-22.554117,-43.463562,,,,,,,
1528191368.181024,0.212568,0.465406,3.036584,0.081693,-0.000553,0.004416,0.188532,-0.448786,-0.873526,-0.003886,0.004556,0.004599,-7.817780,-22.718002,-43.518066,,,,,,,
1528191368.201177,0.212749,0.466433,3.036419,0.032850,0.001326,0.005422,0.188592,-0.449704,-0.873040,-0.002587,0.001889,0.007592,-7.848068,-22.637970,-43.366791,,,,,,,
1528191368.221329,0.212585,0.466687,3.036481,0.004211,-0.000990,0.006456,0.188425,-0.449930,-0.872960,0.001166,-0.004003,0.007390,-7.951050,-22.836809,-43.370270,,,,,,,
1528191368.241482,0.212801,0.466703,3.036557,-0.002277,0.012991,0.003241,0.188612,-0.449945,-0.872912,-0.003279,-0.002707,0.005633,-8.040878,-22.737537,-43.559143,,,,,,,
1528191368.261635,0.212723,0.466661,3.036545,0.000132,-0.014967,-0.003158,0.188548,-0.449907,-0.872945,-0.005717,-0.002883,-0.001658,-8.034515,-23.057730,-43.639526,,,,,,,
1528191368.281788,0.212363,0.466946,3.036335,0.027884,-0.030959,-0.005255,0.188207,-0.450161,-0.872888,-0.000692,0.002682,-0.007315,-8.323883,-22.871338,-43.424377,,,,,,,
1528191368.301941,0.211761,0.468222,3.035949,0.089458,-0.034943,-0.000899,0.187561,-0.451300,-0.872439,0.001480,0.004233,-0.007383,-8.050446,-22.943430,-43.432007,,,,,,,
1528191368.322093,0.211603,0.470159,3.035357,0.093472,-0.007963,-0.007308,0.187239,-0.453028,-0.871612,-0.000197,0.002115,-0.004319,-8.271622,-23.001493,-43.538483,,,,,,,
1528191368.342246,0.212153,0.471402,3.034960,0.039995,0.032626,0.001158,0.187600,-0.454136,-0.870958,0.001258,-0.000485,0.007524,-8.106506,-22.962856,-43.555908,,,,,,,
1528191368.362399,0.212773,0.471456,3.035122,-0.016292,0.032247,0.013898,0.188134,-0.454184,-0.870817,-0.000894,-0.002633,0.008009,-8.391708,-23.161983,-43.548004,,,,,,,
1528191368.382552,0.213186,0.471338,3.035477,0.000782,0.021569,0.014994,0.188505,-0.454078,-0.870792,-0.000822,-0.001747,0.005664,-8.310059,-23.230637,-43.342590,,,,,,,
1528191368.402704,0.213186,0.471872,3.035418,0.039404,-0.015832,-0.002040,0.188454,-0.454554,-0.870555,-0.002602,0.001063,-0.000249,-7.960617,-23.197254,-43.301941,,,,,,,
1528191368.422857,0.212602,0.472918,3.034910,0.062034,-0.047949,-0.014813,0.187845,-0.455486,-0.870199,-0.004266,0.001461,-0.005304,-7.923508,-23.131529,-43.372498,,,,,,,
1528191368.443010,0.212212,0.474275,3.034391,0.075569,-0.024250,-0.001994,0.187375,-0.456694,-0.869668,-0.000363,0.000791,-0.004539,-8.117233,-22.966335,-43.443970,,,,,,,
1528191368.463163,0.211826,0.475879,3.034344,0.082823,-0.014649,0.023639,0.186885,-0.458120,-0.869022,0.000051,0.001684,-0.005337,-8.345612,-23.090799,-43.604919,,,,,,,
1528191368.483316,0.211944,0.477630,3.034421,0.081392,0.027395,0.015089,0.186819,-0.459675,-0.868215,-0.002737,-0.002086,0.003698,-8.211884,-23.374813,-43.018066,,,,,,,
1528191368.503468,0.212964,0.478686,3.034104,0.033589,0.041264,-0.010601,0.187601,-0.460613,-0.867549,-0.003931,-0.002735,0.010570,-7.931519,-23.521013,-43.291809,,,,,,,
1528191368.523621,0.213557,0.478562,3.033781,-0.017028,0.007622,-0.014924,0.188128,-0.460503,-0.867493,-0.002154,-0.002723,0.014390,-7.883514,-23.329159,-43.437164,,,,,,,
1528191368.543774,0.213223,0.478182,3.033561,0.000366,-0.037533,-0.011687,0.187876,-0.460166,-0.867727,0.001486,0.002769,0.001287,-8.147278,-23.210285,-43.268555,,,,,,,
1528191368.563927,0.212541,0.479034,3.033285,0.070399,-0.040445,0.001214,0.187200,-0.460922,-0.867472,0.003916,0.003677,-0.006170,-8.348267,-23.681749,-43.048798,,,,,,,
1528191368.584079,0.211650,0.481012,3.032909,0.108707,-0.052108,0.005529,0.186236,-0.462676,-0.866745,0.005323,0.005691,-0.010559,-8.243378,-23.763962,-43.022736,,,,,,,
1528191368.604232,0.211202,0.482891,3.032495,0.080818,-0.018838,-0.000916,0.185664,-0.464342,-0.865977,-0.000453,0.005785,-0.004095,-8.155212,-23.627485,-43.315918,,,,,,,
1528191368.624385,0.211577,0.483852,3.032365,0.027213,0.034654,0.010745,0.185896,-0.465193,-0.865470,-0.002089,-0.002108,0.008445,-8.189453,-23.586468,-42.922058,,,,,,,
1528191368.644538,0.212092,0.484050,3.032567,0.000789,0.022665,0.010719,0.186322,-0.465367,-0.865284,-0.007825,-0.004008,0.006184,-8.055450,-23.752291,-42.980133,,,,,,,
1528191368.664691,0.212415,0.484229,3.032526,0.014780,0.007747,-0.005275,0.186584,-0.465526,-0.865143,-0.008987,-0.001393,0.007187,-7.763748,-23.649973,-42.748077,,,,,,,
1528191368.684843,0.212311,0.484667,3.032148,0.029976,-0.025529,-0.011660,0.186451,-0.465913,-0.864963,-0.004551,0.001253,0.003238,-7.724960,-23.907021,-42.933594,,,,,,,
1528191368.704996,0.211907,0.485349,3.031852,0.038409,-0.024466,0.001170,0.186034,-0.466517,-0.864727,-0.004348,0.006709,0.002987,-7.781357,-23.952646,-43.169617,,,,,,,
1528191368.725149,0.211652,0.486045,3.031793,0.029720,-0.005165,0.007555,0.185746,-0.467133,-0.864457,-0.003068,0.006485,-0.006271,-7.817291,-24.050611,-43.139008,,,,,,,
1528191368.745302,0.211864,0.486369,3.031799,0.008248,0.022749,0.002185,0.185897,-0.467419,-0.864269,0.003129,0.000424,-0.003864,-7.881119,-23.896139,-42.989777,,,,,,,
1528191368.765455,0.212707,0.486502,3.031648,0.010200,0.043264,-0.005289,0.186613,-0.467536,-0.864052,0.007021,-0.002053,0.002815,-7.909790,-23.985716,-42.944763,,,,,,,
1528191368.785607,0.213638,0.486689,3.031421,0.010294,0.034672,-0.009556,0.187399,-0.467702,-0.863792,0.001078,0.000661,0.003166,-7.765854,-23.903603,-43.089020,,,,,,,
1528191368.805760,0.213950,0.486810,3.031225,0.004262,-0.003094,-0.003152,0.187656,-0.467809,-0.863678,0.008388,-0.004420,0.004242,-7.671509,-23.762117,-42.863190,,,,,,,
1528191368.825913,0.213711,0.486891,3.031277,0.006369,-0.005282,0.006466,0.187441,-0.467880,-0.863686,0.008649,-0.007660,0.002190,-7.932922,-23.929161,-42.712952,,,,,,,
1528191368.846066,0.213793,0.487025,3.031325,0.006276,0.006592,0.001123,0.187499,-0.467999,-0.863609,0.000352,-0.002354,-0.004143,-7.830917,-23.916199,-42.832153,,,,,,,
1528191368.866218,0.214094,0.487222,3.031069,0.016874,0.014269,-0.014885,0.187740,-0.468173,-0.863463,-0.007900,0.001345,-0.002306,-7.701279,-24.084253,-42.907471,,,,,,,
1528191368.886371,0.214881,0.487495,3.030525,0.015701,0.028289,-0.020232,0.188392,-0.468414,-0.863190,-0.006126,0.003006,0.002793,-7.729263,-23.926956,-42.741699,,,,,,,
1528191368.906524,0.215223,0.487609,3.030332,0.003184,-0.004213,0.004323,0.188675,-0.468515,-0.863073,-0.000657,-0.000891,-0.001307,-7.753433,-23.734873,-42.671204,,,,,,,
1528191368.926677,0.214503,0.487845,3.030535,0.019358,-0.034334,0.013957,0.188030,-0.468723,-0.863101,-0.007855,0.000629,-0.003858,-7.794052,-23.868858,-42.722504,,,,,,,
1528191368.946830,0.214274,0.488518,3.030450,0.041392,-0.000722,-0.005240,0.187766,-0.469317,-0.862835,-0.012183,-0.004270,0.001294,-7.673508,-23.861170,-42.948059,,,,,,,
1528191368.966982,0.214810,0.489375,3.029590,0.048826,0.011348,-0.040468,0.188143,-0.470075,-0.862341,-0.008058,-0.006198,0.003286,-7.826736,-23.950388,-42.678925,,,,,,,
1528191368.987135,0.215692,0.489765,3.028245,0.017064,0.009117,-0.058654,0.188863,-0.470419,-0.861996,-0.004980,-0.005137,0.006680,-7.786407,-23.972048,-42.591858,,,,,,,
1528191369.007288,0.216252,0.489305,3.027019,-0.025291,-0.002986,-0.054433,0.189393,-0.470013,-0.862101,0.000838,-0.000309,0.000758,-7.903961,-23.976446,-42.724091,,,,,,,
1528191369.027441,0.216577,0.488594,3.026275,-0.022265,0.005516,-0.029878,0.189745,-0.469385,-0.862366,0.002226,0.001963,-0.014206,-8.012787,-23.885147,-42.669037,,,,,,,
1528191369.047594,0.216989,0.488476,3.025867,0.011518,0.019624,-0.014894,0.190112,-0.469281,-0.862342,-0.003024,0.001950,-0.021280,-7.670227,-23.830597,-42.673676,,,,,,,
1528191369.067746,0.218198,0.489024,3.025035,0.040967,0.057631,-0.042622,0.191098,-0.469764,-0.861860,-0.009015,-0.000435,-0.015825,-7.736298,-23.797331,-42.370697,,,,,,,
1528191369.087899,0.220181,0.489490,3.023534,0.029359,0.057663,-0.061859,0.192759,-0.470176,-0.861266,-0.003062,-0.004189,-0.005647,-7.763916,-23.951288,-42.558990,,,,,,,
1528191369.108052,0.221503,0.489699,3.022113,0.023372,0.013424,-0.052243,0.193876,-0.470360,-0.860914,-0.001844,0.001259,0.001524,-7.590607,-23.873871,-42.533691,,,,,,,
1528191369.128205,0.221742,0.490112,3.021031,0.037434,-0.022153,-0.030866,0.194039,-0.470724,-0.860678,-0.000085,0.005530,0.000159,-7.545929,-23.827726,-42.531799,,,,,,,
1528191369.148357,0.221527,0.491079,3.020545,0.056379,-0.014648,-0.004151,0.193754,-0.471577,-0.860276,0.000033,-0.001292,0.001603,-7.514786,-23.862747,-42.212006,,,,,,,
1528191369.168510,0.221656,0.492104,3.020064,0.043499,0.003636,-0.012713,0.193759,-0.472481,-0.859778,-0.007785,-0.003944,0.004020,-7.497253,-24.060640,-42.316833,,,,,,,
1528191369.188663,0.221886,0.492571,3.019364,0.022492,-0.014709,-0.027679,0.193908,-0.472893,-0.859518,-0.008758,-0.005683,0.001959,-7.816284,-23.857456,-42.071381,,,,,,,
1528191369.208816,0.221955,0.493149,3.018328,0.046967,-0.015571,-0.043667,0.193907,-0.473402,-0.859239,-0.011031,-0.004504,0.004975,-7.704254,-23.806683,-42.068146,,,,,,,
1528191369.228969,0.222899,0.493696,3.016785,0.030714,0.028624,-0.068257,0.194661,-0.473883,-0.858802,-0.009633,-0.006601,0.007515,-7.529144,-24.033022,-42.067688,,,,,,,
1528191369.249121,0.224495,0.493260,3.015083,-0.025624,0.041288,-0.077938,0.196077,-0.473499,-0.858692,0.002516,-0.002422,0.003376,-7.667328,-23.953308,-42.034912,,,,,,,
1528191369.269274,0.225403,0.492302,3.013798,-0.024290,0.003464,-0.052306,0.196958,-0.472656,-0.858955,0.010959,0.004119,-0.019188,-7.437119,-24.207258,-41.933716,,,,,,,
1528191369.289427,0.225543,0.492900,3.012951,0.081900,-0.015525,-0.015866,0.197015,-0.473183,-0.858652,0.010870,0.008675,-0.029364,-7.342178,-24.226109,-41.917725,,,,,,,
1528191369.309580,0.225640,0.495629,3.012080,0.165670,-0.010806,-0.006155,0.196809,-0.475585,-0.857371,0.002639,0.005584,-0.017598,-7.341690,-24.032373,-41.834717,,,,,,,
1528191369.329732,0.226501,0.498558,3.010766,0.130407,0.023608,-0.032893,0.197233,-0.478159,-0.855840,-0.007078,-0.000387,0.007345,-7.289978,-24.219006,-41.778656,,,,,,,
1528191369.349885,0.227622,0.499822,3.009395,0.039234,0.016697,-0.043685,0.198056,-0.479269,-0.855029,-0.001340,0.001044,0.015384,-7.408585,-24.213413,-41.650787,,,,,,,
1528191369.370038,0.228183,0.499852,3.008491,0.007503,0.000293,-0.029842,0.198532,-0.479296,-0.854904,0.004043,0.003038,0.007461,-7.267838,-24.194128,-41.386902,,,,,,,
1528191369.390191,0.227672,0.500653,3.008092,0.075829,-0.056624,0.010829,0.198009,-0.479998,-0.854631,0.007145,0.007098,-0.011031,-7.378784,-24.281261,-41.381470,,,,,,,
1528191369.410344,0.225893,0.503541,3.008155,0.173720,-0.096130,0.048328,0.196176,-0.482530,-0.853627,0.003103,0.004014,-0.002391,-7.241455,-24.612898,-41.806580,,,,,,,
1528191369.430496,0.224609,0.507014,3.007998,0.145758,-0.045499,0.016249,0.194706,-0.485569,-0.852240,-0.010593,-0.003323,0.015890,-7.247574,-24.437376,-41.431763,,,,,,,
1528191369.450649,0.224898,0.508251,3.007095,0.017014,0.009030,-0.042642,0.194818,-0.486650,-0.851597,-0.013711,-0.003462,0.022114,-7.172668,-24.499390,-41.393433,,,,,,,
1528191369.470802,0.225567,0.507158,3.006220,-0.066887,0.016124,-0.045952,0.195507,-0.485694,-0.851985,-0.000759,-0.003609,0.004649,-7.404648,-24.830820,-41.397644,,,,,,,
1528191369.490955,0.226140,0.506097,3.005557,-0.021327,0.019524,-0.030953,0.196110,-0.484767,-0.852374,0.006893,0.001125,-0.010678,-7.577164,-24.587172,-41.012909,,,,,,,
1528191369.511108,0.226954,0.506549,3.004792,0.050827,0.018813,-0.024454,0.196754,-0.485162,-0.852001,-0.000679,0.001413,-0.011754,-7.505814,-24.518639,-41.137817,,,,,,,
1528191369.531260,0.228000,0.507698,3.003695,0.064532,0.034044,-0.039390,0.197520,-0.486167,-0.851251,0.000356,-0.000253,0.000298,-7.309921,-24.571526,-41.148132,,,,,,,
1528191369.551413,0.229446,0.508548,3.002425,0.045406,0.037180,-0.041551,0.198656,-0.486909,-0.850562,0.003416,0.004503,0.002676,-7.036224,-24.601217,-41.018250,,,,,,,
1528191369.571566,0.230269,0.509235,3.001450,0.045617,0.006916,-0.020186,0.199280,-0.487509,-0.850072,0.013626,0.008399,-0.000453,-7.338150,-24.733959,-41.091949,,,,,,,
1528191369.591719,0.230039,0.510145,3.001300,0.046807,-0.020204,0.018257,0.198983,-0.488304,-0.849685,0.007880,0.004158,-0.006577,-7.345245,-24.707396,-40.824524,,,,,,,
1528191369.611872,0.230255,0.511224,3.001436,0.055740,0.047715,0.013976,0.199046,-0.489246,-0.849129,-0.005443,-0.000714,0.004372,-7.049438,-24.815615,-40.835815,,,,,,,
1528191369.632024,0.231529,0.511975,3.001096,0.029295,0.047727,-0.014876,0.200044,-0.489900,-0.848517,-0.005723,-0.000762,0.011633,-7.086411,-24.747883,-40.755127,,,,,,,
1528191369.652177,0.232234,0.512315,3.000420,0.022401,-0.006120,-0.023416,0.200604,-0.490196,-0.848213,0.008411,-0.002846,0.012139,-6.892365,-24.886238,-40.707581,,,,,,,
1528191369.672330,0.231720,0.512982,2.999711,0.055775,-0.057668,-0.018030,0.200092,-0.490777,-0.847998,0.002254,0.000757,-0.002664,-7.045242,-24.839014,-40.572449,,,,,,,
1528191369.692484,0.231494,0.514585,2.998981,0.091248,0.004965,-0.011592,0.199720,-0.492173,-0.847276,-0.006360,-0.000747,0.008363,-7.019547,-25.068861,-40.733246,,,,,,,
1528191369.712637,0.232396,0.515922,2.998296,0.049609,0.032761,-0.015921,0.200332,-0.493337,-0.846455,-0.005340,-0.001307,0.013355,-7.187775,-24.942904,-40.336609,,,,,,,
1528191369.732790,0.233058,0.515960,2.998009,-0.022446,0.017233,-0.006400,0.200888,-0.493370,-0.846304,0.005350,0.003364,0.020895,-7.037094,-24.983366,-40.861755,,,,,,,
1528191369.752942,0.232463,0.515398,2.998309,-0.022973,-0.047508,0.016036,0.200449,-0.492881,-0.846693,0.011847,-0.000954,-0.000353,-6.959625,-24.961885,-40.429016,,,,,,,
1528191369.773095,0.230886,0.515996,2.998657,0.061094,-0.074017,0.024687,0.199046,-0.493401,-0.846721,0.001073,0.002160,-0.009496,-7.000092,-24.977264,-40.312195,,,,,,,
1528191369.793248,0.230079,0.518098,2.998324,0.117981,-0.019718,-0.000880,0.198125,-0.495229,-0.845869,-0.008809,0.000340,0.000899,-7.008835,-25.079922,-40.671112,,,,,,,
1528191369.813401,0.231003,0.519790,2.997297,0.060266,0.032893,-0.029787,0.198715,-0.496698,-0.844869,-0.004226,0.002146,0.022222,-7.005020,-25.135153,-40.331512,,,,,,,
1528191369.833554,0.231565,0.519636,2.996648,-0.031745,-0.005376,-0.018153,0.199207,-0.496564,-0.844832,0.003552,0.001889,0.019118,-7.002716,-25.108250,-40.525238,,,,,,,
1528191369.853706,0.231161,0.518805,2.996693,-0.034869,-0.018419,0.001063,0.198960,-0.495842,-0.845314,0.005813,0.001488,0.006965,-7.300003,-25.143999,-40.540283,,,,,,,
1528191369.873859,0.230785,0.518676,2.996839,0.006410,-0.008523,0.006454,0.198657,-0.495731,-0.845450,0.003217,0.001590,0.000785,-7.202026,-25.104944,-40.525513,,,,,,,
1528191369.894012,0.231027,0.518785,2.996734,-0.002309,0.020581,-0.007443,0.198849,-0.495825,-0.845350,-0.004162,0.003485,0.013090,-6.965637,-24.916843,-40.352905,,,,,,,
1528191369.914165,0.231511,0.517890,2.996586,-0.064844,0.014894,-0.016063,0.199360,-0.495048,-0.845685,-0.003803,0.001151,0.008115,-7.180313,-24.734888,-40.535736,,,,,,,
1528191369.934318,0.231569,0.516584,2.996503,-0.049750,-0.010883,-0.013904,0.199557,-0.493913,-0.846302,0.003613,0.002351,-0.009106,-7.107056,-24.843235,-40.533691,,,,,,,
1528191369.954470,0.231060,0.516712,2.996329,0.045920,-0.033060,0.003307,0.199112,-0.494024,-0.846342,0.008026,0.003118,-0.017229,-7.218933,-25.105085,-40.278961,,,,,,,
1528191369.974623,0.231125,0.518412,2.996067,0.088874,0.024219,0.010818,0.198974,-0.495501,-0.845510,0.005112,0.001895,0.002996,-7.005829,-25.090027,-40.340942,,,,,,,
1528191369.994776,0.232043,0.519394,2.996000,0.014351,0.049665,0.008581,0.199638,-0.496354,-0.844853,-0.001137,0.000383,0.022984,-7.157013,-25.123835,-40.304504,,,,,,,
1528191370.014929,0.232437,0.518589,2.996335,-0.069106,0.010458,0.003145,0.200063,-0.495655,-0.845163,-0.000738,-0.003841,0.019708,-7.167755,-24.891891,-40.302063,,,,,,,
1528191370.035082,0.231868,0.517039,2.996672,-0.069743,-0.032584,-0.004314,0.199759,-0.494308,-0.846024,-0.003393,-0.007767,-0.006058,-7.397568,-24.862734,-40.260376,,,,,,,
1528191370.055235,0.231655,0.516291,2.996546,-0.015973,0.008683,-0.012800,0.199663,-0.493658,-0.846426,-0.009112,-0.004648,-0.012049,-7.104156,-24.868900,-40.216522,,,,,,,
1528191370.075387,0.232343,0.516210,2.996256,0.000754,0.034617,-0.010646,0.200255,-0.493587,-0.846327,-0.008253,0.001659,-0.005403,-7.178940,-24.965496,-40.335754,,,,,,,
1528191370.095540,0.232578,0.516049,2.996214,-0.013687,-0.014000,0.002156,0.200471,-0.493448,-0.846357,-0.002779,0.002588,-0.000261,-7.094360,-24.916561,-40.238861,,,,,,,
1528191370.115693,0.231700,0.515875,2.996299,-0.001734,-0.041917,-0.002096,0.199749,-0.493296,-0.846616,-0.006374,-0.001989,-0.000491,-7.571930,-24.759111,-40.517395,,,,,,,
1528191370.135846,0.231430,0.515959,2.996067,0.006353,0.004508,-0.013833,0.199511,-0.493369,-0.846630,-0.009981,-0.005166,-0.004642,-7.085678,-24.898737,-40.540588,,,,,,,
1528191370.155999,0.232536,0.515520,2.995696,-0.036661,0.066769,-0.020312,0.200496,-0.492987,-0.846619,-0.006298,-0.005304,0.005113,-7.170288,-24.952202,-40.320984,,,,,,,
1528191370.176152,0.234202,0.514114,2.995572,-0.085747,0.093394,-0.015044,0.202067,-0.491764,-0.846958,-0.000880,-0.003979,0.018085,-7.154724,-25.002768,-40.319489,,,,,,,
1528191370.196304,0.236367,0.511781,2.995805,-0.134783,0.115755,-0.016168,0.204169,-0.489731,-0.847631,-0.005163,0.000610,0.021337,-7.034393,-24.636623,-40.590912,,,,,,,
1528191370.216457,0.238032,0.508508,2.996410,-0.175923,0.086390,-0.006613,0.205957,-0.486874,-0.848843,-0.002496,0.004895,0.021466,-7.024445,-24.481901,-40.539001,,,,,,,
1528191370.236610,0.238855,0.504856,2.997535,-0.191640,0.058208,0.011526,0.207074,-0.483681,-0.850396,0.002521,0.001214,0.018013,-7.107834,-24.510462,-40.510284,,,,,,,
1528191370.256763,0.238967,0.501606,2.998538,-0.139278,0.026284,-0.006547,0.207541,-0.480835,-0.851895,-0.008551,-0.000718,-0.003040,-6.777115,-24.231262,-40.541840,,,,,,,
1528191370.276916,0.240505,0.500154,2.998232,-0.027317,0.096007,-0.040592,0.209016,-0.479561,-0.852252,-0.015779,-0.000252,0.002093,-6.527847,-24.047253,-40.618805,,,,,,,
1528191370.297068,0.243963,0.499536,2.997361,-0.043073,0.191773,-0.040638,0.212034,-0.479018,-0.851812,-0.010450,-0.002061,0.035085,-6.826263,-24.039877,-40.829315,,,,,,,
1528191370.317221,0.249406,0.496323,2.997431,-0.242653,0.308043,-0.035575,0.217046,-0.476195,-0.852132,-0.017171,0.000915,0.060857,-6.941544,-24.150389,-40.936005,,,,,,,
1528191370.337374,0.255261,0.488480,2.998888,-0.474256,0.331513,-0.031601,0.222968,-0.469284,-0.854434,-0.012595,0.000641,0.055270,-6.483368,-24.117348,-41.257202,,,,,,,
1528191370.357527,0.260491,0.477642,3.001351,-0.575873,0.302966,-0.033851,0.228730,-0.459686,-0.858121,-0.001115,-0.001206,0.017117,-6.071152,-23.676098,-41.177979,,,,,,,
1528191370.377680,0.264797,0.466917,3.003685,-0.506420,0.254904,-0.038025,0.233699,-0.450136,-0.861837,0.003972,-0.000655,-0.009120,-6.000717,-23.021706,-41.508850,,,,,,,
1528191370.397833,0.269487,0.458412,3.005483,-0.393211,0.291039,-0.032558,0.238750,-0.442524,-0.864390,0.005024,-0.003551,-0.005208,-6.084656,-22.658134,-41.527740,,,,,,,
1528191370.417985,0.274983,0.450928,3.006958,-0.383728,0.300825,-0.040021,0.244389,-0.435801,-0.866228,-0.003697,0.001093,0.000399,-5.828201,-22.387842,-41.857758,,,,,,,
1528191370.438138,0.280153,0.442759,3.008305,-0.422817,0.288867,-0.060353,0.249840,-0.428434,-0.868345,-0.008232,-0.001924,0.003904,-5.445053,-21.959074,-42.058105,,,,,,,
1528191370.458291,0.286217,0.433985,3.009558,-0.442539,0.357733,-0.068936,0.256153,-0.420489,-0.870387,-0.009907,-0.001691,0.008906,-5.440552,-21.893450,-42.574066,,,,,,,
1528191370.478444,0.293150,0.424812,3.011050,-0.467135,0.374791,-0.061497,0.263285,-0.412150,-0.872246,-0.002725,0.003932,0.006859,-5.002701,-21.487196,-42.691223,,,,,,,
1528191370.498597,0.299447,0.415805,3.012585,-0.424239,0.328732,-0.064635,0.269856,-0.403927,-0.874083,-0.003774,0.005489,-0.008898,-4.964844,-21.141619,-42.750336,,,,,,,
1528191370.518749,0.305830,0.409025,3.013435,-0.274743,0.342467,-0.060171,0.276248,-0.397715,-0.874934,-0.002643,0.002481,-0.006673,-4.537567,-20.642504,-43.060120,,,,,,,
1528191370.538902,0.312090,0.405189,3.013291,-0.129885,0.289432,-0.064253,0.282186,-0.394193,-0.874633,-0.004415,0.005780,-0.016480,-4.187622,-20.539927,-43.397095,,,,,,,
1528191370.559055,0.317381,0.403657,3.012639,-0.032768,0.224146,-0.040627,0.286998,-0.392784,-0.873700,0.001881,0.008079,-0.007846,-3.883499,-20.540812,-43.621307,,,,,,,
1528191370.579208,0.321241,0.403323,3.012132,-0.005762,0.166017,-0.018160,0.290409,-0.392477,-0.872711,0.009090,0.005498,0.005050,-3.682983,-20.669903,-43.811676,,,,,,,
1528191370.599361,0.324579,0.402580,3.011826,-0.055491,0.155050,-0.033168,0.293414,-0.391793,-0.872012,0.011212,0.001748,0.002399,-3.674591,-20.625805,-43.778168,,,,,,,
1528191370.619514,0.327238,0.400469,3.011448,-0.108070,0.110720,-0.055641,0.295996,-0.389850,-0.872011,0.026346,-0.000180,-0.015746,-3.668106,-20.716152,-43.603149,,,,,,,
1528191370.639666,0.328928,0.398478,3.011149,-0.064156,0.058029,-0.025682,0.297720,-0.388016,-0.872241,0.033319,0.007065,-0.034512,-3.204819,-20.477728,-44.024414,,,,,,,
1528191370.659819,0.329331,0.398663,3.011256,0.050746,0.007736,0.033196,0.298049,-0.388186,-0.872054,0.027391,0.017184,-0.032655,-3.473175,-20.403389,-43.951538,,,,,,,
1528191370.679972,0.329075,0.401016,3.011949,0.116365,0.007800,0.089860,0.297529,-0.390354,-0.871263,0.024141,0.017612,-0.015227,-3.375580,-20.597799,-43.781647,,,,,,,
1528191370.700124,0.329318,0.403789,3.013423,0.089237,0.062460,0.113307,0.297390,-0.392905,-0.870163,0.009495,0.021369,0.012925,-3.331451,-20.941319,-43.783630,,,,,,,
1528191370.720277,0.330648,0.404934,3.015454,-0.021709,0.127603,0.101402,0.298401,-0.393958,-0.869341,0.010056,0.014381,0.033220,-3.354340,-20.406473,-43.825928,,,,,,,
1528191370.740429,0.332184,0.403491,3.018049,-0.153219,0.121573,0.087368,0.299920,-0.392631,-0.869418,0.019614,0.001029,0.021365,-3.482941,-20.342213,-44.181427,,,,,,,
1528191370.760582,0.333003,0.400155,3.021397,-0.229389,0.092023,0.096889,0.301059,-0.389562,-0.870405,0.010632,-0.000789,-0.000338,-3.502731,-20.626612,-44.242279,,,,,,,
1528191370.780735,0.333780,0.396246,3.025288,-0.242683,0.146803,0.110736,0.302232,-0.385958,-0.871603,0.005172,-0.007688,-0.007303,-3.271439,-20.268850,-44.469574,,,,,,,
1528191370.800888,0.336141,0.392680,3.029389,-0.222301,0.231928,0.124619,0.304741,-0.382666,-0.872181,-0.008598,-0.003732,-0.012539,-2.854507,-20.316980,-44.800171,,,,,,,
1528191370.821041,0.339903,0.389512,3.033494,-0.207753,0.263214,0.129968,0.308422,-0.379737,-0.872167,-0.020016,0.000693,-0.011622,-2.641541,-19.706799,-44.828125,,,,,,,
1528191370.841194,0.342536,0.386830,3.037705,-0.177165,0.165294,0.144977,0.311059,-0.377255,-0.872308,-0.020669,-0.006046,-0.016074,-2.858734,-19.506319,-44.961395,,,,,,,
1528191370.861346,0.342670,0.385310,3.041316,-0.091897,0.021551,0.123762,0.311368,-0.375846,-0.872805,-0.018155,-0.010888,-0.026227,-2.814011,-19.394686,-45.037811,,,,,,,
1528191370.881499,0.340331,0.385831,3.043678,0.038026,-0.131639,0.103679,0.309260,-0.376329,-0.873347,-0.012293,-0.014845,-0.024953,-2.881287,-19.669134,-44.977966,,,,,,,
1528191370.901652,0.334536,0.388531,3.044332,0.160418,-0.376273,0.054776,0.303859,-0.378829,-0.874161,0.001973,-0.007752,-0.028244,-2.999390,-19.615467,-45.096222,,,,,,,
1528191370.921805,0.323760,0.393788,3.043098,0.342575,-0.662675,0.024110,0.293784,-0.383689,-0.875484,0.006799,0.007072,-0.051273,-3.712372,-19.635290,-44.850250,,,,,,,
1528191370.941958,0.308363,0.403396,3.040349,0.580436,-0.908090,0.041553,0.279139,-0.392544,-0.876350,0.016577,0.019909,-0.058586,-4.308640,-20.126593,-44.566132,,,,,,,
1528191370.962110,0.290128,0.416936,3.037284,0.718679,-0.950616,0.081238,0.261568,-0.404961,-0.876121,0.026884,0.016991,-0.015496,-5.041306,-20.635105,-44.098633,,,,,,,
1528191370.982263,0.274161,0.430546,3.035065,0.622412,-0.764919,0.100293,0.246031,-0.417367,-0.874799,0.022630,0.008340,0.028760,-5.778641,-21.270422,-43.591278,,,,,,,
1528191371.002416,0.261886,0.440606,3.034473,0.403684,-0.532457,0.109575,0.234176,-0.426488,-0.873653,0.010026,0.003117,0.054607,-6.305740,-21.613974,-43.450745,,,,,,,
1528191371.022569,0.252319,0.447007,3.035098,0.252086,-0.437441,0.109358,0.225121,-0.432269,-0.873192,0.007011,-0.001707,0.037178,-6.936996,-21.756807,-43.290649,,,,,,,
1528191371.042722,0.242287,0.452178,3.036150,0.245389,-0.515020,0.108300,0.215810,-0.436926,-0.873225,0.004572,0.001410,0.010401,-7.371658,-22.011843,-43.104340,,,,,,,
1528191371.062875,0.229377,0.458731,3.036655,0.357582,-0.702805,0.093536,0.203864,-0.442811,-0.873131,0.000848,0.005021,-0.018318,-7.692947,-22.281431,-42.785431,,,,,,,
1528191371.083027,0.213880,0.467572,3.036199,0.465731,-0.795774,0.068074,0.189471,-0.450720,-0.872326,0.008405,0.003866,-0.022190,-8.392456,-22.513756,-42.544739,,,,,,,
1528191371.103180,0.200720,0.476757,3.035370,0.421147,-0.565485,0.058352,0.177142,-0.458900,-0.870650,0.010053,-0.000206,0.006316,-8.979568,-22.842293,-42.155060,,,,,,,
1528191371.123333,0.193474,0.482944,3.035727,0.219384,-0.227512,0.093257,0.170279,-0.464388,-0.869108,0.000955,0.002016,0.016492,-9.631454,-23.218842,-42.089050,,,,,,,
1528191371.143486,0.190890,0.485788,3.037835,0.082478,-0.015219,0.131467,0.167782,-0.466905,-0.868244,-0.006848,0.004412,0.001789,-9.992722,-23.287815,-41.640747,,,,,,,
1528191371.163639,0.189662,0.487981,3.040374,0.112267,-0.020399,0.124033,0.166522,-0.468844,-0.867442,-0.016848,-0.000440,-0.019689,-9.854050,-23.414604,-41.751923,,,,,,,
1528191371.183791,0.186619,0.492184,3.041709,0.250922,-0.190654,0.080473,0.163515,-0.472551,-0.866001,-0.015413,-0.006071,-0.024883,-10.148666,-23.502226,-41.670166,,,,,,,
1528191371.203944,0.180180,0.498753,3.041493,0.362401,-0.406305,0.039027,0.157376,-0.478330,-0.863963,-0.006939,-0.002306,-0.013173,-10.281479,-23.543135,-41.417419,,,,,,,
1528191371.224097,0.169827,0.507445,3.040441,0.481048,-0.604856,0.029608,0.147714,-0.485945,-0.861416,-0.002130,0.005095,-0.023518,-10.722092,-23.712706,-41.117279,,,,,,,
1528191371.244250,0.156833,0.518501,3.039099,0.577501,-0.707759,0.038300,0.135662,-0.495578,-0.857903,0.014195,0.013858,-0.007377,-11.095215,-24.429892,-41.345184,,,,,,,
1528191371.264403,0.143039,0.529635,3.038233,0.518836,-0.682317,0.054236,0.123021,-0.505218,-0.854178,0.019985,0.016647,0.026938,-11.684113,-24.712395,-40.329681,,,,,,,
1528191371.284556,0.131274,0.538259,3.038438,0.366444,-0.512043,0.079629,0.112389,-0.512642,-0.851215,0.013756,0.009346,0.035404,-12.300003,-25.100130,-39.975525,,,,,,,
1528191371.304708,0.122573,0.544280,3.039839,0.257487,-0.334003,0.107208,0.104599,-0.517803,-0.849081,0.004349,0.003963,0.018897,-12.605423,-25.293921,-39.544800,,,,,,,
1528191371.324861,0.116449,0.548856,3.041556,0.200363,-0.237329,0.096437,0.099120,-0.521712,-0.847344,-0.001296,-0.004869,0.007073,-12.911026,-25.472139,-39.730652,,,,,,,
1528191371.345014,0.111182,0.552942,3.042967,0.194927,-0.215710,0.075068,0.094420,-0.525193,-0.845729,-0.008833,-0.003386,0.011332,-13.313080,-25.870592,-39.588409,,,,,,,
1528191371.365167,0.105943,0.556730,3.043889,0.172089,-0.263109,0.053703,0.089776,-0.528413,-0.844227,-0.006906,-0.000517,0.016652,-13.385147,-25.653812,-39.167694,,,,,,,
1528191371.385320,0.099012,0.560185,3.044481,0.177323,-0.363166,0.038787,0.083742,-0.531343,-0.843008,-0.005357,-0.006148,-0.003413,-13.606659,-25.907007,-39.075317,,,,,,,
1528191371.405472,0.090591,0.564682,3.044875,0.249116,-0.437093,0.041033,0.076423,-0.535147,-0.841295,-0.000557,-0.002756,-0.017516,-14.008881,-26.100304,-38.796173,,,,,,,
1528191371.425625,0.079891,0.571079,3.045349,0.361744,-0.566853,0.051876,0.067142,-0.540540,-0.838635,0.000134,-0.000918,-0.039875,-14.263016,-26.191355,-38.748260,,,,,,,
1528191371.445778,0.067240,0.579730,3.045542,0.455136,-0.670683,0.027461,0.056211,-0.547798,-0.834720,0.004199,0.003166,-0.023465,-14.853790,-26.392000,-38.087921,,,,,,,
1528191371.465931,0.052804,0.589159,3.044874,0.473112,-0.763009,-0.010932,0.043881,-0.555662,-0.830249,0.000751,0.005888,0.002109,-15.273529,-26.862671,-37.639526,,,,,,,
1528191371.486084,0.032289,0.598171,3.044879,0.444734,-1.266489,0.054272,0.026678,-0.563132,-0.825936,-0.001028,0.072516,-0.041541,-15.983200,-27.197847,-37.183777,,,,,,,
1528191371.506236,0.002636,0.609315,3.048617,0.610598,-1.358004,0.224264,0.002162,-0.572306,-0.820037,0.059713,0.030191,0.135833,-17.016388,-27.497892,-36.366333,,,,,,,
1528191371.526389,-0.030772,0.620224,3.054453,0.455884,-1.605437,0.212386,-0.025037,-0.581217,-0.813363,0.035123,0.000391,0.133874,-18.067062,-28.021393,-35.806061,,,,,,,
1528191371.546542,-0.066462,0.625377,3.058461,0.155949,-1.618464,0.121263,-0.053844,-0.585403,-0.808952,0.013958,-0.005555,0.152489,-19.524002,-28.040421,-34.750519,,,,,,,
1528191371.566695,-0.095968,0.624709,3.059735,-0.150464,-1.273855,0.010825,-0.077723,-0.584861,-0.807401,-0.040349,-0.031883,0.080563,-20.890335,-28.492754,-34.170532,,,,,,,
1528191371.586848,-0.112289,0.617148,3.057240,-0.509698,-0.620490,-0.088009,-0.091383,-0.578712,-0.810396,-0.033404,-0.036996,0.012392,-21.970169,-28.575563,-33.917389,,,,,,,
1528191371.607001,-0.114797,0.606064,3.053831,-0.546419,-0.003765,-0.045486,-0.094144,-0.569637,-0.816486,-0.035678,-0.009785,-0.067959,-22.537231,-28.162806,-33.609955,,,,,,,
1528191371.627153,-0.112467,0.596645,3.053402,-0.414875,0.071694,0.080644,-0.092840,-0.561870,-0.821999,-0.011271,0.003047,-0.044425,-22.595612,-27.856173,-33.708740,,,,,,,
1528191371.647306,-0.117437,0.589924,3.054457,-0.259406,-0.425993,0.056395,-0.097364,-0.556298,-0.825259,-0.009692,-0.042961,-0.049863,-22.749420,-27.670244,-33.986969,,,,,,,
1528191371.667459,-0.132662,0.588619,3.052962,0.056482,-0.997322,-0.130975,-0.110012,-0.555213,-0.824400,-0.018711,-0.017801,-0.082857,-23.262177,-27.338314,-34.083008,,,,,,,
1528191371.687612,-0.154098,0.594348,3.047959,0.337561,-1.260971,-0.290719,-0.127167,-0.559968,-0.818696,-0.002990,0.013017,-0.077300,-23.941360,-27.568880,-33.622101,,,,,,,
1528191371.707765,-0.173782,0.601615,3.042257,0.261758,-0.997654,-0.263109,-0.142550,-0.565975,-0.812005,0.032946,0.019497,-0.008705,-24.567657,-27.937153,-32.919525,,,,,,,
1528191371.727917,-0.186249,0.604684,3.038916,0.062843,-0.562434,-0.079825,-0.152339,-0.568502,-0.808454,0.056483,0.027517,-0.016879,-25.793564,-28.373898,-31.582550,,,,,,,
1528191371.748070,-0.194538,0.605866,3.040317,0.081634,-0.256353,0.108038,-0.158905,-0.569474,-0.806503,0.054748,0.022828,-0.000671,-26.116653,-28.925688,-31.922699,,,,,,,
1528191371.768223,-0.199792,0.606341,3.043476,0.008515,-0.158796,0.117533,-0.163086,-0.569864,-0.805392,0.031128,-0.005362,0.033878,-26.098526,-28.305037,-31.271881,,,,,,,
1528191371.788376,-0.204566,0.604641,3.045270,-0.102419,-0.195777,0.069358,-0.167126,-0.568467,-0.805552,0.003491,-0.013427,0.038661,-26.447495,-28.418978,-31.316650,,,,,,,
1528191371.808529,-0.208114,0.601723,3.045380,-0.164303,-0.145254,0.023363,-0.170325,-0.566063,-0.806574,-0.010598,0.004754,0.031656,-26.725845,-28.473312,-31.549316,,,,,,,
1528191371.828681,-0.210586,0.597648,3.045319,-0.220972,-0.111276,0.055306,-0.172799,-0.562700,-0.808399,-0.010611,0.005998,0.028064,-26.966721,-27.981817,-31.494598,,,,,,,
1528191371.848834,-0.211515,0.591917,3.045367,-0.324037,0.013074,0.058349,-0.174224,-0.557953,-0.811378,-0.001710,-0.009186,0.043891,-27.014206,-28.067936,-31.883636,,,,,,,
1528191371.868987,-0.208238,0.583284,3.044290,-0.496723,0.210364,0.045276,-0.172554,-0.550768,-0.816627,0.005013,-0.009504,0.045844,-27.001389,-27.699282,-31.751740,,,,,,,
1528191371.889140,-0.200492,0.571292,3.042682,-0.651567,0.417273,0.065320,-0.167527,-0.540719,-0.824353,0.013413,0.005105,0.031399,-26.960632,-27.370499,-32.659058,,,,,,,
1528191371.909293,-0.189716,0.556705,3.041186,-0.764147,0.532872,0.083295,-0.160105,-0.528392,-0.833767,0.001795,0.012080,0.026303,-26.883911,-26.896749,-32.979462,,,,,,,
1528191371.929446,-0.177749,0.540261,3.039551,-0.841857,0.559389,0.078919,-0.151631,-0.514360,-0.844062,-0.003581,-0.006224,0.013908,-26.731369,-26.463516,-33.883179,,,,,,,
1528191371.949598,-0.165584,0.523051,3.037581,-0.850184,0.549786,0.054363,-0.142791,-0.499525,-0.854450,-0.004884,-0.014940,0.000934,-26.589279,-25.815569,-34.440796,,,,,,,
1528191371.969751,-0.153870,0.506707,3.035466,-0.787193,0.517931,0.033093,-0.134006,-0.485301,-0.864017,-0.001828,-0.013402,-0.022092,-26.223328,-25.042965,-35.307343,,,,,,,
1528191371.989904,-0.142215,0.491728,3.033746,-0.733505,0.559071,0.049166,-0.124943,-0.472150,-0.872619,0.008976,-0.002658,-0.015000,-25.988434,-24.647104,-36.025726,,,,,,,
1528191372.010057,-0.129333,0.476694,3.033265,-0.761432,0.688958,0.102481,-0.114594,-0.458844,-0.881096,0.013139,-0.002841,-0.000435,-25.731750,-24.226177,-36.888123,,,,,,,
1528191372.030210,-0.113086,0.460238,3.033886,-0.834718,0.908078,0.138637,-0.101104,-0.444161,-0.890224,0.015319,0.002999,0.018855,-25.382095,-23.699223,-37.688354,,,,,,,
1528191372.050362,-0.093511,0.442244,3.035700,-0.903052,1.044195,0.195111,-0.084391,-0.427969,-0.899845,0.014475,0.004644,0.031910,-24.517334,-22.839413,-38.755737,,,,,,,
1528191372.070515,-0.074251,0.423198,3.038668,-0.939696,0.983573,0.215365,-0.067638,-0.410679,-0.909268,0.006329,-0.000607,0.024212,-24.126144,-22.222795,-39.540070,,,,,,,
1528191372.090668,-0.057603,0.404437,3.041494,-0.899823,0.822476,0.169543,-0.052926,-0.393501,-0.917799,-0.012061,-0.000603,0.000975,-23.524017,-21.479158,-40.810242,,,,,,,
1528191372.110821,-0.042519,0.386743,3.043336,-0.871719,0.790655,0.105526,-0.039366,-0.377174,-0.925305,-0.015611,-0.007729,0.001340,-23.077545,-20.557320,-41.390594,,,,,,,
1528191372.130974,-0.024251,0.368300,3.044652,-0.952768,1.060583,0.097887,-0.022622,-0.360030,-0.932666,0.002481,-0.015794,0.020862,-22.359222,-19.997572,-42.504547,,,,,,,
1528191372.151126,0.001060,0.346887,3.047516,-1.128461,1.430753,0.181927,0.000997,-0.339972,-0.940435,0.026378,-0.009439,0.015783,-21.839859,-19.018702,-43.302032,,,,,,,
1528191372.171279,0.030383,0.323013,3.053217,-1.192957,1.593555,0.287507,0.028807,-0.317425,-0.947846,0.027544,0.005550,-0.023010,-20.509521,-18.065052,-44.656616,,,,,,,
1528191372.191432,0.060630,0.300888,3.061188,-1.051181,1.620966,0.344261,0.057871,-0.296369,-0.953319,0.007330,0.006635,-0.047261,-19.251755,-17.069942,-45.884460,,,,,,,
1528191372.211585,0.088849,0.282814,3.069468,-0.848764,1.441365,0.301853,0.085207,-0.279059,-0.956486,-0.022845,0.009604,-0.062816,-17.978119,-16.172535,-47.077118,,,,,,,
1528191372.231738,0.113451,0.268376,3.075851,-0.689383,1.237136,0.185723,0.109155,-0.265166,-0.958004,-0.039133,-0.003023,-0.051273,-16.567688,-15.139484,-47.906830,,,,,,,
1528191372.251891,0.134465,0.256364,3.079830,-0.565838,1.001412,0.082372,0.129679,-0.253565,-0.958587,-0.038965,0.000879,-0.050996,-15.683395,-14.639320,-48.697113,,,,,,,
1528191372.272043,0.150968,0.247450,3.081804,-0.379569,0.745428,0.005793,0.145814,-0.244933,-0.958512,-0.027192,-0.000124,-0.051299,-14.729218,-14.101604,-49.173370,,,,,,,
1528191372.292196,0.162543,0.242088,3.082374,-0.206267,0.495554,-0.017423,0.157109,-0.239730,-0.958043,-0.009816,-0.001740,-0.039455,-14.085892,-13.990257,-49.450104,,,,,,,
1528191372.312349,0.171040,0.239155,3.082613,-0.129047,0.404366,-0.003417,0.165363,-0.236882,-0.957362,0.011487,-0.003154,-0.002523,-13.602051,-13.439632,-49.687653,,,,,,,
1528191372.332502,0.179456,0.236131,3.083609,-0.183770,0.453397,0.037076,0.173541,-0.233943,-0.956637,0.016827,0.004481,0.030459,-13.236755,-13.543938,-49.690399,,,,,,,
1528191372.352655,0.188502,0.231641,3.085559,-0.260389,0.469033,0.055123,0.182383,-0.229575,-0.956050,0.003866,0.014884,0.026546,-12.621033,-13.343586,-50.372742,,,,,,,
1528191372.372807,0.197582,0.226568,3.087571,-0.262513,0.474474,0.041234,0.191282,-0.224635,-0.955484,-0.008619,0.008631,-0.000555,-12.274796,-13.062534,-50.166473,,,,,,,
1528191372.392960,0.206653,0.222144,3.088773,-0.201748,0.458858,0.002882,0.200143,-0.220322,-0.954673,-0.017526,0.008560,-0.024361,-11.771240,-13.115063,-50.576416,,,,,,,
1528191372.413113,0.215704,0.219032,3.089488,-0.133729,0.447364,0.007241,0.208922,-0.217285,-0.953488,-0.010130,-0.002152,-0.023685,-11.217453,-12.497780,-50.407013,,,,,,,
1528191372.433266,0.223969,0.217120,3.090053,-0.076977,0.393826,0.007326,0.216887,-0.215418,-0.952132,-0.000990,-0.000570,-0.026170,-10.896393,-12.386574,-50.638916,,,,,,,
1528191372.453419,0.230877,0.216475,3.090205,-0.003016,0.319974,-0.003241,0.223490,-0.214789,-0.950746,-0.000865,0.004233,-0.040038,-10.419769,-12.242237,-50.634918,,,,,,,
1528191372.473571,0.236382,0.217738,3.089849,0.104871,0.246254,-0.003088,0.228657,-0.216022,-0.949237,0.001613,0.003665,-0.046476,-10.108292,-12.286739,-50.561249,,,,,,,
1528191372.493724,0.241302,0.220727,3.089044,0.172900,0.234767,-0.000869,0.233169,-0.218939,-0.947469,-0.003753,0.000753,-0.020426,-9.818512,-12.464748,-50.407990,,,,,,,
1528191372.513877,0.245683,0.224126,3.087996,0.179779,0.185342,-0.015793,0.237136,-0.222254,-0.945711,-0.005492,0.003993,-0.008787,-9.337769,-12.320114,-50.314575,,,,,,,
1528191372.534030,0.249183,0.227836,3.086291,0.214185,0.146886,-0.040299,0.240239,-0.225870,-0.944070,-0.002004,0.001780,-0.002891,-9.332779,-12.669014,-50.199829,,,,,,,
1528191372.554183,0.253564,0.231808,3.084209,0.207009,0.235205,-0.047798,0.244145,-0.229738,-0.942132,0.000773,0.003282,0.012857,-9.052185,-12.768959,-50.018707,,,,,,,
1528191372.574336,0.259627,0.234623,3.082650,0.122442,0.303549,-0.024429,0.249687,-0.232476,-0.940006,0.003716,0.002847,0.011921,-8.742340,-13.067570,-49.946564,,,,,,,
1528191372.594488,0.265408,0.236666,3.081801,0.120819,0.245300,-0.009472,0.254992,-0.234463,-0.938086,-0.004839,-0.000110,-0.012094,-8.264893,-13.534737,-50.637634,,,,,,,
1528191372.614641,0.268609,0.240289,3.080139,0.248799,0.079244,-0.044512,0.257765,-0.237983,-0.936440,-0.012312,0.002006,-0.032187,-7.995316,-13.411129,-49.932007,,,,,,,
1528191372.634794,0.270041,0.246002,3.076700,0.344960,0.031623,-0.104166,0.258739,-0.243528,-0.934745,-0.021816,-0.000155,-0.020577,-8.114182,-13.514030,-49.571075,,,,,,,
1528191372.654947,0.273239,0.251860,3.072175,0.318485,0.151207,-0.139466,0.261338,-0.249205,-0.932523,-0.020050,0.000609,0.007993,-8.097229,-13.818947,-49.254822,,,,,,,
1528191372.675100,0.277381,0.257201,3.067613,0.344105,0.131913,-0.129818,0.264830,-0.254375,-0.930139,-0.002440,-0.005773,-0.034934,-7.954010,-13.895393,-48.942413,,,,,,,
1528191372.695252,0.280817,0.265524,3.062518,0.536630,0.081202,-0.114615,0.267428,-0.262415,-0.927157,0.013654,0.007181,-0.054990,-7.677673,-14.341236,-48.998810,,,,,,,
1528191372.715405,0.282056,0.276381,3.056931,0.613138,-0.047708,-0.097405,0.267768,-0.272876,-0.924034,0.011651,0.016132,-0.054619,-7.100067,-14.677231,-49.110535,,,,,,,
1528191372.735559,0.283869,0.287674,3.051988,0.583036,0.090836,-0.053700,0.268562,-0.283722,-0.920530,0.008476,0.013504,-0.006335,-6.904831,-15.342842,-48.233459,,,,,,,
1528191372.755711,0.288515,0.297669,3.048158,0.497943,0.212994,-0.023939,0.272016,-0.293292,-0.916508,-0.001295,0.015079,0.000370,-6.924133,-15.765114,-47.866730,,,,,,,
1528191372.775864,0.294443,0.306804,3.044739,0.483856,0.244147,-0.023968,0.276655,-0.302014,-0.912277,-0.000669,0.006939,0.004348,-6.479843,-16.218975,-47.713806,,,,,,,
1528191372.796016,0.299095,0.316488,3.040814,0.542339,0.125013,-0.040944,0.280021,-0.311231,-0.908143,0.003426,0.005017,-0.007202,-5.664307,-17.228189,-47.093414,,,,,,,
1528191372.816170,0.301856,0.326986,3.036159,0.567656,0.034768,-0.057976,0.281541,-0.321190,-0.904197,0.000182,0.010933,0.008414,-5.373062,-17.902540,-46.872345,,,,,,,
1528191372.836322,0.303494,0.337196,3.031278,0.550129,-0.015889,-0.069731,0.282027,-0.330842,-0.900557,-0.012648,0.015459,-0.001481,-5.362045,-17.988586,-46.288879,,,,,,,
1528191372.856475,0.304800,0.347599,3.026031,0.581002,-0.022126,-0.080368,0.282154,-0.340641,-0.896857,-0.005405,0.013233,-0.000711,-5.158539,-18.350794,-46.142792,,,,,,,
1528191372.876628,0.305999,0.358548,3.020826,0.595884,-0.034021,-0.054718,0.282089,-0.350915,-0.892908,0.006806,0.005135,0.009683,-5.187668,-18.881592,-45.556427,,,,,,,
1528191372.896780,0.306474,0.369541,3.015836,0.585800,-0.088991,-0.057924,0.281332,-0.361188,-0.889042,-0.004446,0.003278,0.007374,-5.119324,-19.423639,-45.254211,,,,,,,
1528191372.916934,0.305395,0.380289,3.010324,0.588979,-0.186767,-0.099536,0.279189,-0.371189,-0.885591,-0.020553,-0.003110,0.007433,-5.227524,-19.869436,-44.680023,,,,,,,
1528191372.937086,0.303029,0.390724,3.003486,0.591216,-0.287642,-0.167843,0.275922,-0.380858,-0.882504,-0.020963,-0.007219,-0.010669,-5.498062,-19.966038,-44.346466,,,,,,,
1528191372.957239,0.298819,0.401851,2.995333,0.689953,-0.394664,-0.194389,0.270940,-0.391122,-0.879553,0.000086,-0.004202,-0.055215,-5.559875,-20.561655,-43.605225,,,,,,,
1528191372.977392,0.294284,0.416963,2.986312,0.928606,-0.394642,-0.151377,0.265203,-0.404985,-0.875016,0.014780,0.013476,-0.077178,-5.839111,-21.038624,-42.970398,,,,,,,
1528191372.997545,0.290005,0.435654,2.977667,1.017352,-0.377313,-0.076537,0.259247,-0.422004,-0.868737,0.024795,0.019584,-0.028053,-6.076538,-21.801620,-42.359985,,,,,,,
1528191373.017697,0.286057,0.453859,2.970857,0.901984,-0.319015,-0.017969,0.253605,-0.438437,-0.862239,0.014294,0.019477,0.028148,-6.296921,-22.712662,-41.661316,,,,,,,
1528191373.037850,0.283353,0.468760,2.965299,0.702420,-0.195085,-0.037473,0.249418,-0.451780,-0.856554,-0.000395,0.018293,0.075594,-6.335114,-23.303133,-41.374542,,,,,,,
1528191373.058003,0.283267,0.479659,2.960789,0.503808,-0.068030,-0.034549,0.247954,-0.461476,-0.851797,0.005007,0.017674,0.090688,-6.308121,-23.788408,-40.694916,,,,,,,
1528191373.078156,0.283284,0.487216,2.957938,0.337152,-0.076662,-0.001657,0.246986,-0.468168,-0.848420,0.018105,0.017789,0.098023,-6.194962,-24.114305,-40.475708,,,,,,,
1528191373.098310,0.281908,0.492073,2.956435,0.208139,-0.130196,0.007806,0.245183,-0.472454,-0.846565,0.017024,0.002438,0.078147,-6.134079,-24.170828,-40.277893,,,,,,,
1528191373.118461,0.279109,0.496378,2.955030,0.242608,-0.179484,-0.004953,0.242250,-0.476244,-0.845285,-0.010331,0.000612,0.018380,-6.214890,-24.341736,-40.146576,,,,,,,
1528191373.138614,0.275326,0.501417,2.952861,0.269195,-0.290147,-0.028380,0.238395,-0.480669,-0.843875,-0.017845,-0.003279,-0.006040,-6.474457,-24.548807,-40.118774,,,,,,,
1528191373.158767,0.267614,0.506588,2.950481,0.297483,-0.477401,-0.027232,0.231220,-0.485197,-0.843280,-0.004139,-0.010912,-0.018994,-6.826172,-24.729538,-39.861755,,,,,,,
1528191373.178921,0.261143,0.513134,2.947323,0.351720,-0.364931,-0.058156,0.224934,-0.490910,-0.841672,0.002636,0.000279,0.002423,-6.905121,-25.144476,-39.553101,,,,,,,
1528191373.199073,0.255884,0.518562,2.944691,0.241599,-0.291400,-0.024145,0.219827,-0.495632,-0.840253,0.008262,-0.001469,0.026105,-7.082184,-25.479067,-39.371796,,,,,,,
1528191373.219225,0.253074,0.521690,2.943126,0.130626,-0.108821,-0.042477,0.217075,-0.498346,-0.839362,-0.014072,0.012094,0.036658,-7.167862,-25.679798,-39.151794,,,,,,,
1528191373.239378,0.252825,0.523670,2.941564,0.121565,-0.052947,-0.027559,0.216618,-0.500062,-0.838459,0.001231,-0.019958,-0.003658,-7.252441,-25.752697,-38.969940,,,,,,,
1528191373.259531,0.250555,0.526836,2.940015,0.199533,-0.218379,-0.027420,0.214321,-0.502801,-0.837411,0.000477,0.000177,-0.011543,-7.150909,-25.959375,-39.315643,,,,,,,
1528191373.279685,0.245033,0.531338,2.938202,0.259376,-0.380761,-0.011288,0.209142,-0.506688,-0.836377,0.002375,-0.008052,-0.013263,-7.207672,-26.149689,-39.007233,,,,,,,
1528191373.299837,0.237163,0.537330,2.936241,0.329110,-0.457901,-0.016526,0.201837,-0.511844,-0.835031,-0.011712,0.002795,-0.016120,-7.526047,-26.273829,-38.899384,,,,,,,
1528191373.319989,0.229437,0.543703,2.933556,0.325746,-0.428689,-0.045365,0.194634,-0.517309,-0.833372,-0.007119,-0.003306,-0.015643,-7.931625,-26.644629,-38.356873,,,,,,,
1528191373.340142,0.223909,0.549068,2.930983,0.253285,-0.285869,-0.041223,0.189405,-0.521892,-0.831717,0.000918,0.002849,0.021491,-8.155670,-27.046230,-38.516663,,,,,,,
1528191373.360296,0.220084,0.552612,2.929093,0.148653,-0.222943,-0.032825,0.185817,-0.524913,-0.830625,0.009831,0.005000,0.039960,-8.336212,-26.965561,-38.160919,,,,,,,
1528191373.380448,0.216184,0.554200,2.927662,0.065109,-0.248059,-0.054270,0.182397,-0.526264,-0.830528,0.000082,0.029117,0.040519,-8.497604,-26.845085,-37.763519,,,,,,,
1528191373.400601,0.211128,0.555560,2.926067,0.087859,-0.299681,-0.045694,0.178046,-0.527420,-0.830739,0.038187,0.009872,0.020268,-8.550385,-27.000551,-37.673492,,,,,,,
1528191373.420754,0.204864,0.557333,2.925010,0.095784,-0.366625,-0.005097,0.172648,-0.528925,-0.830921,0.022192,-0.004293,0.022816,-8.911423,-26.708303,-37.576202,,,,,,,
1528191373.440907,0.197541,0.558754,2.925295,0.033746,-0.329485,0.035386,0.166411,-0.530130,-0.831426,0.011217,-0.003821,0.041829,-8.972519,-27.029476,-37.657562,,,,,,,
1528191373.461059,0.191752,0.558104,2.925907,-0.069992,-0.238394,0.013885,0.161661,-0.529579,-0.832713,0.007102,-0.004250,0.028178,-9.328918,-27.032368,-37.540863,,,,,,,
1528191373.481212,0.186682,0.557181,2.926743,-0.028698,-0.235041,0.034221,0.157527,-0.528796,-0.834002,-0.001216,-0.013563,-0.018735,-9.527924,-27.153759,-37.301300,,,,,,,
1528191373.501365,0.180704,0.557546,2.926644,0.042532,-0.339896,-0.024392,0.152504,-0.529106,-0.834738,-0.021813,-0.009438,-0.045129,-9.639893,-26.993717,-37.527985,,,,,,,
1528191373.521518,0.174856,0.558776,2.924924,0.079654,-0.321133,-0.071323,0.147507,-0.530149,-0.834975,-0.010101,-0.012866,-0.022386,-10.185410,-27.141827,-37.282806,,,,,,,
1528191373.541672,0.170114,0.559788,2.922514,0.060341,-0.289872,-0.096979,0.143455,-0.531007,-0.835136,-0.015632,0.001618,-0.012048,-10.337494,-27.242252,-37.188873,,,,,,,
1528191373.561823,0.166277,0.561016,2.918857,0.105114,-0.288206,-0.162049,0.140141,-0.532047,-0.835036,-0.024403,0.013126,-0.008958,-10.597382,-27.467270,-36.893921,,,,,,,
1528191373.581976,0.162951,0.562771,2.915007,0.111212,-0.278780,-0.105464,0.137211,-0.533531,-0.834575,0.034526,-0.010856,0.003124,-10.740356,-27.683670,-36.975769,,,,,,,
,,,,,,,,,,,,,,,,52.333516,4.864690,-0.825161,-1.000000,-1.000000,1528191373.544896,
1528191373.602129,0.157309,0.564466,2.913992,0.066465,-0.300073,0.006593,0.132359,-0.534965,-0.834441,0.015438,-0.015526,0.017211,-10.905167,-27.720299,-36.933075,,,,,,,
